Site Name,Is HWRC,Region,Street Address,Eastings,Northings,Latitude,Longitude,Phone Number,Website
Salford Road Recycling Centre,1,North West,"Salford Road, Bolton, BL5 1BZ",370473,404817,53.539164,-2.447006,01204 684 595,https://recycleforgreatermanchester.com/recycle-centre/salford-road-recycling-centre/
Hurstwood Court Recycling Centre,1,North West,"Raikes Lane Industrial Estate, Bolton, BL3 2NH",372954,407767,53.565827,-2.409825,01204 522 798,https://recycleforgreatermanchester.com/recycle-centre/hurstwood-court-recycling-centre/
Every Street Recycling Centre,1,North West,"Every Street, Bury, BL9 5BE",380528,411702,53.601533,-2.295717,0161 762 4810,https://recycleforgreatermanchester.com/recycle-centre/every-street/
Cemetery Road Recycling Centre,1,North West,"Cemetery Road, Radcliffe, M26 4FT",377943,407977,53.567933,-2.334517,0161 723 5249,https://recycleforgreatermanchester.com/recycle-centre/cemetery-road-recycling-centre/
Longley Lane Recycling Centre,1,North West,"Longley Lane, Sharston, M22 4RQ",383624,388978,53.397373,-2.247741,0161 428 4963,https://recycleforgreatermanchester.com/recycle-centre/longley-lane-recycling-centre/
Sandfold Lane Recycling Centre,1,North West,"Sandfold Lane, Manchester, M19 3BJ",388392,394544,53.44753,-2.176243,0161 224 0806,https://recycleforgreatermanchester.com/recycle-centre/sandfold-lane-recycling-centre/
Reliance Street Recycling Centre,1,North West,"Reliance Street, Manchester, M40 3EZ",388175,400995,53.50551,-2.179756,0161 688 0370,https://recycleforgreatermanchester.com/recycle-centre/reliance-street-newton-heath/
Arkwright Street Recycling Centre,1,North West,NULL,391349,404958,53.541193,-2.132012,0161 626 0362,https://recycleforgreatermanchester.com/recycle-centre/arkwright-street-recycling-centre/
Chichester Street Recycling Centre,1,North West,NULL,390566,413210,53.615367,-2.144078,01706 643 871,https://recycleforgreatermanchester.com/recycle-centre/chichester-street-recycling-centre/
Spring Vale Recycling Centre,1,North West,NULL,387542,405984,53.550338,-2.1895,0161 653 5271,https://recycleforgreatermanchester.com/recycle-centre/spring-vale-recycling-centre/
Lumns Lane Recycling Centre,1,North West,NULL,379303,402716,53.520719,-2.31363,0161 794 8832,https://recycleforgreatermanchester.com/recycle-centre/lumns-lane-recycling-centre/
Boysnope Wharf Recycling Centre,1,North West,NULL,373627,395919,53.459354,-2.398664,0161 775 8632,https://recycleforgreatermanchester.com/recycle-centre/liverpool-road-recycling-centre/
Cobden Street Recycling Centre,1,North West,NULL,381158,399747,53.494086,-2.285475,07881 385059,https://recycleforgreatermanchester.com/recycle-centre/cobden-street-recycling-centre/
Adswood Road Recycling Centre,1,North West,NULL,388544,387837,53.387248,-2.173708,0161 486 0140,https://recycleforgreatermanchester.com/recycle-centre/adswood-road-recycling-centre/
Bredbury Parkway Recycling Centre,1,North West,NULL,392421,392621,53.43032,-2.115533,0161 406 9861,https://recycleforgreatermanchester.com/recycle-centre/bredbury-parkway-recycling-centre/
Rose Hill Recycling Centre,1,North West,NULL,394965,388724,53.395339,-2.07718,0161 484 5632,https://recycleforgreatermanchester.com/recycle-centre/railway-road-recycling-centre/
Bayley Street Recycling Centre,1,North West,NULL,395552,398460,53.482856,-2.068495,07717 571 247,https://recycleforgreatermanchester.com/recycle-centre/bayley-street-recycling-centre/
Ash Road Recycling Centre,1,North West,NULL,389611,398662,53.48457,-2.158027,07881 384758,https://recycleforgreatermanchester.com/recycle-centre/ash-road-recycling-centre/
Woodhouse Lane Recycling Centre,1,North West,NULL,375187,390460,53.410363,-2.374738,0161 928 6995,https://recycleforgreatermanchester.com/recycle-centre/sinderland-road-recycling-centre/
Chester Road Recycling Centre,1,North West,NULL,379265,393796,53.440525,-2.313613,0161 865 8817,https://recycleforgreatermanchester.com/recycle-centre/chester-road-recycling-centre/
Anvil Corner Recycling Centre,1,South West,NULL,237503,104081,50.813423,-4.307962,0345 155 1010,https://new.devon.gov.uk/wasteandrecycling/centre/anvil-corner-recycling-centre/
Ashley Recycling Centre,1,South West,NULL,294787,110572,50.885026,-3.497077,0345 155 1010,https://new.devon.gov.uk/wasteandrecycling/centre/ashley-recycling-centre/
Bideford Recycling Centre,1,South West,NULL,243376,125394,51.006547,-4.233843,0345 155 1010,https://new.devon.gov.uk/wasteandrecycling/centre/385/
Brunel Road Recycling Centre,1,South West,NULL,287151,71241,50.53003,-3.593552,0345 155 1010,https://new.devon.gov.uk/wasteandrecycling/centre/brunel-road-recycling-centre/
Crowndale Recycling Centre,1,South West,"Crowndale, Tavistock, Devon, PL19 8JR",247332,72685,50.533964,-4.155584,0345 155 1010,https://new.devon.gov.uk/wasteandrecycling/centre/crowndale-recycling-centre/
Deep Moor Recycling Centre,1,NULL,NULL,NULL,NULL,NULL,NULL,0345 155 1010,https://new.devon.gov.uk/wasteandrecycling/centre/deep-moor-recycling-centre/
Exton Road Recycling Centre,1,South West,NULL,292023,91189,50.710275,-3.530651,0345 155 1010,https://new.devon.gov.uk/wasteandrecycling/centre/exton-road-recycling-centre/
Ivybridge Recycling Centre,1,South West,NULL,263155,55715,50.385357,-3.926248,0345 155 1010,https://new.devon.gov.uk/wasteandrecycling/centre/ivybridge-recycling-centre/
Killacleave Recycling Centre,1,South West,NULL,253334,146075,51.195019,-4.100396,0345 155 1010,https://new.devon.gov.uk/wasteandrecycling/centre/killacleave-recycling-centre/
Knowle Hill Recycling Centre,1,South West,NULL,303744,81711,50.627127,-3.36223,0345 155 1010,https://new.devon.gov.uk/wasteandrecycling/centre/knowle-hill-recycling-centre/
Maclins Quarry Recycling Centre,1,South West,NULL,271811,126463,51.023205,-3.829143,0345 155 1010,https://new.devon.gov.uk/wasteandrecycling/centre/maclins-quarry-recycling-centre/
Okehampton Recycling Centres,1,South West,NULL,260426,95548,50.742718,-3.97956,0345 155 1010,https://new.devon.gov.uk/wasteandrecycling/centre/okehampton-recycling-centre/
Pinbrook Road Recycling Centre,1,South West,,295565,94092,50.73702,-3.481327,0345 155 1010,https://new.devon.gov.uk/wasteandrecycling/centre/pinbrook-road-recycling-centre/
Punchbowl Recycling Centre,1,South West,NULL,278822,100491,50.791274,-3.720614,0345 155 1010,https://new.devon.gov.uk/wasteandrecycling/centre/punchbowl-recycling-centre/
Seven Brethren Recycling Centre,1,South West,NULL,255863,132431,51.073052,-4.058788,0345 155 1010,https://new.devon.gov.uk/wasteandrecycling/centre/seven-brethren/
Sidmouth Recycling Centre,1,South West,NULL,310553,89937,50.702169,-3.267981,0345 155 1010,https://new.devon.gov.uk/wasteandrecycling/centre/sidmouth-recycling-centre/
Sutton Barton Recycling Centre,1,South West,NULL,320059,99070,50.785669,-3.135386,0345 155 1010,https://new.devon.gov.uk/wasteandrecycling/centre/sutton-barton-recycling-centre/
Torr Quarry Recycling Centre,1,South West,NULL,274475,48063,50.319101,-3.76455,0345 155 1010,https://new.devon.gov.uk/wasteandrecycling/centre/torr-quarry-recycling-centre/
Totnes Recycling Centre,1,South West,NULL,280524,60807,50.43492,-3.683674,0345 155 1010,https://new.devon.gov.uk/wasteandrecycling/centre/totnes-recycling-centre/
Bridgwater (Saltlands) Recycling Centre,1,South West,NULL,329865,138005,51.137002,-3.003823,01278 444877,https://www.somersetwaste.gov.uk/centres/bridgwater-recycling-centre/
Castle Cary (Dimmer) Recycling Centre,1,South West,NULL,361823,131905,51.085183,-2.546429,01963 351725,https://www.somersetwaste.gov.uk/centres/castle-cary-recycling-centre/
Chard Recycling Centre,1,South West,NULL,333156,109647,50.882431,-2.951558,01460 65855,https://www.somersetwaste.gov.uk/centres/chard-recycling-centre/
Cheddar Recycling Centre,1,South West,NULL,345533,153123,51.27464,-2.7822096,01934 744916,https://www.somersetwaste.gov.uk/centres/cheddar-recycling-centre/
Crewkerne Community Recycling Centre,1,South West,NULL,344815,109474,50.882101,-2.785819,01460 78284,https://www.somersetwaste.gov.uk/centres/crewkerne-community-recycling-site/
Dulverton Community Recycling Centre,1,South West,NULL,292119,126692,51.029432,-3.53979,01398 323615,https://www.somersetwaste.gov.uk/centres/dulverton-community-recycling-site/
Frome Recycling Centre,1,South West,NULL,377190,146934,51.221141,-2.327997, 01373 453622,https://www.somersetwaste.gov.uk/centres/frome-recycling-centre/
Highbridge Recycling Centre,1,South West,NULL,332598,147389,51.2217,-2.966529, 01278 784419,https://www.somersetwaste.gov.uk/centres/highbridge-recycling-centre/
Minehead Recycling Centre,1,South West,NULL,297505,145946,51.203498,-3.46849,01643 707894,https://www.somersetwaste.gov.uk/centres/minehead-recycling-centre/
Somerton Recycling Centre,1,South West,NULL,347696,129132,51.059126,-2.747707,01458 274643,https://www.somersetwaste.gov.uk/centres/somerton-recycling-centre/
Street Recycling Centre,1,South West,NULL,348182,137164,51.131395,-2.741923,01458 840076,https://www.somersetwaste.gov.uk/centres/street-recycling-centre/
Taunton (Priorswood) Recycling Centre,1,South West,NULL,324292,126084,51.029111,-3.080969,01823 338615,https://www.somersetwaste.gov.uk/centres/taunton-recycling-centre/
Wellington (Poole) Recycling Centre,1,South West,NULL,314698,121768,50.988968,-3.216724,01823 661617,https://www.somersetwaste.gov.uk/centres/wellington-recycling-centre/
Wells (Dulcote) Recycling Centre,1,South West,NULL,356270,144552,51.1985,-2.627244,01749 670973,https://www.somersetwaste.gov.uk/centres/wells-recycling-centre/
Williton Recycling Centre,1,South West,NULL,307572,141237,51.162888,-3.323208, 01984 632221,https://www.somersetwaste.gov.uk/centres/williton-recycling-centre/
Yeovil Recycling Centre,1,South West,NULL,352290,116789,50.948543,-2.680531,01935 411151,https://www.somersetwaste.gov.uk/centres/yeovil-recycling-centre/
Dorchester Recycling Centre (Louds Mill),1,South West,NULL,371012,90258,50.711216,-2.41192,01305 221040,https://www.dorsetcouncil.gov.uk/bins-recycling-and-litter/recycling-centres-and-banks/dorchester-household-recycling-centre.aspx
Amesbury Recycling Centre,1,South West,"Amesbury H R C, Mills Way, Amesbury, Salisbury, Wiltshire, SP4 7RX",416713,141767,51.174899,-1.762307,01980 623160,http://www.wiltshire.gov.uk/household-recycling-centres-amesbury
Devizes Recycling Centre,1,South West,"Hopton Industrial Estate, London Road, Devizes, Wiltshire, SN10 2EU",402001,163064,51.366633,-1.972637,01380 739940,http://www.wiltshire.gov.uk/household-recycling-centres-devizes
Everleigh Recycling Centre,1,South West,"Pewsey Road, Everleigh, Marlborough, Wiltshire, SN9 6LZ",419561,157708,51.318147,-1.720702,01672 562015,http://www.wiltshire.gov.uk/household-recycling-centres-everleigh
Lower Compton Recycling Centre,1,South West,"Lower Compton Waste Recovery Facility, Lower Compton, Calne, Wiltshire, SN11 8RB",402143,170715,51.43543,-1.970561,01249 822141,http://www.wiltshire.gov.uk/household-recycling-centres-lower-compton
Marlborough Recycling Centre,1,South West,"Marlborough Business Park, Salisbury Road, Marlborough, Wiltshire, SN8 4AE",419342,168732,51.417277,-1.723248,01672 515129,http://www.wiltshire.gov.uk/household-recycling-centres-marlborough
Melksham Recycling Centre,1,South West,"Melksham H R C, Lancaster Road, Bowerhill, Melksham, Wiltshire, SN12 6QT",390827,162062,51.357553,-2.133124,07856 000908,http://www.wiltshire.gov.uk/household-recycling-centres-melksham
Purton Recycling Centre,1,South West,"Purton H R C, Mopes Lane, Purton, Wiltshire, SN5 4HG",408794,188727,51.597319,-1.8744339,01793 778205,http://www.wiltshire.gov.uk/household-recycling-centres-purton
Salisbury Recycling Centre,1,South West,"Salisbury H R C, Stephenson Road, Churchfields Ind Est, Salisbury, Wiltshire, SP2 7BU",413268,129835,51.067696,-1.812022,01722 322309,http://www.wiltshire.gov.uk/household-recycling-centres-salisbury
Stanton St Quintin Recycling Centre,1,South West,"Land / Premises At, Former Transfer Station, Stanton St Quinton, Wiltshire, SN14 6BD",392307,179536,51.514694,-2.112255,01249 750716,http://www.wiltshire.gov.uk/household-recycling-centres-stanton-st-quintin
Trowbridge Recycling Centre,1,South West,"Trowbridge Hwrc, Canal Road, Trowbridge, Wiltshire, BA14 8QU",385787,158911,51.329116,-2.205379,01225 755641,http://www.wiltshire.gov.uk/household-recycling-centres-trowbridge
Warminster Recycling Centre,1,South West,"Furnax Lane, Warminster, Wiltshire, BA12 8PE",386746,145854,51.211734,-2.191126,01985 211427,http://www.wiltshire.gov.uk/household-recycling-centres-warminster
New Alresford Recycling Centre,1,South East,"H W R C, Prospect Road, New Alresford, Hampshire, SO24 9QF",458128,131711,51.081778,-1.171528,01962 735422,https://www.hants.gov.uk/wasteandrecycling/recyclingcentres/hwrcfinder/New-Alresford
Southampton Recycling Centre,1,South East,"Dock Gate 20, Off First Avenue, Millbrook Trading Estate, Southampton, Hampshire, SO15 0LJ",438046,113080,50.915935,-1.460162,02380 784679,https://www.hants.gov.uk/wasteandrecycling/recyclingcentres/hwrcfinder/Southampton
Fair Oak Recycling Centre,1,South East,"Fair Oak H W R C, Knowle Lane, Fair Oak, Hampshire, SO50 7DZ",450265,118164,50.960709,-1.285647,02380 693270,https://www.hants.gov.uk/wasteandrecycling/recyclingcentres/hwrcfinder/Fair-Oak
Gosport Recycling Centre,1,South East,"Gosport H W R C, Grange Road, Gosport, Hampshire, PO13 8AS",458741,100013,50.796712,-1.167894,02392 584454,https://www.hants.gov.uk/wasteandrecycling/recyclingcentres/hwrcfinder/Gosport
Farnborough Recycling Centre,1,South East,"Farnborough H W R C, Eelmoor Road, Farnborough, Hampshire, GU14 7QN",485874,154695,51.28493,-0.770036,01252 544119,https://www.hants.gov.uk/wasteandrecycling/recyclingcentres/hwrcfinder/Farnborough
Havant Recycling Centre,1,South East,"Havant H W R C, Harts Farm Way, Havant, Hampshire, PO9 1JN",470717,105740,50.846869,-0.99689,02392 474368,https://www.hants.gov.uk/wasteandrecycling/recyclingcentres/hwrcfinder/Havant
Segensworth Recycling Centre,1,South East,,453287,107623,50.865665,-1.244169,01489 564850,https://www.hants.gov.uk/wasteandrecycling/recyclingcentres/hwrcfinder/Segensworth
Alton Recycling Centre,1,South East,"Omega Park, Alton, Hampshire, GU34 2QE",472661,139298,51.148338,-0.962561,01420 544067,https://www.hants.gov.uk/wasteandrecycling/recyclingcentres/hwrcfinder/Alton
Waterlooville Recycling Centre,1,South East,"Old Park Farm, Waterlooville, Hampshire, PO7 7TH",467294,110143,50.886865,-1.044695,02392 252310,https://www.hants.gov.uk/wasteandrecycling/recyclingcentres/hwrcfinder/Waterlooville
Basingstoke Recycling Centre,1,South East,"Basingstoke H W R C, Wade Road, Basingstoke, Hampshire, RG24 8PL",465097,153840,51.279993,-1.068064,01256 352984,https://www.hants.gov.uk/wasteandrecycling/recyclingcentres/hwrcfinder/Basingstoke
Winchester Recycling Centre,1,South East,"Bar End Depot, Bar End Road, Winchester, Hampshire, SO23 9NP",448743,128566,51.054371,-1.305922,01962 842767,https://www.hants.gov.uk/wasteandrecycling/recyclingcentres/hwrcfinder/Winchester
Petersfield Recycling Centre,1,South East,"Petersfield H W R C, Bedford Road, Petersfield, Hampshire, GU32 3QG",473725,122897,51.00075,-0.950707,01730 261538,https://www.hants.gov.uk/wasteandrecycling/recyclingcentres/hwrcfinder/Petersfield
Bordon Recycling Centre,1,South East,"Bordon H W R C, Station Road, Bordon, Hampshire, GU35 0LR",479775,136494,51.122182,-0.861494,01420 473591,https://www.hants.gov.uk/wasteandrecycling/recyclingcentres/hwrcfinder/Bordon
Marchwood Recycling Centre,1,South East,"Land / Premises At, Normandy Way, Marchwood, Hampshire, SO40 4PB",439067,110615,50.893693,-1.445895,02380 865178,https://www.hants.gov.uk/wasteandrecycling/recyclingcentres/hwrcfinder/Marchwood
Aldershot Recycling Centre,1,South East,"Aldershot H W R C, Ivy Road, North Lane, Aldershot, Hampshire, GU12 4TX",488042,150588,51.247679,-0.739967,01252 318290,https://www.hants.gov.uk/wasteandrecycling/recyclingcentres/hwrcfinder/Aldershot
Somerley Recycling Centre,1,South West,"Somerly H W R C, Verwood Road, Somerley, Ringwood, Hampshire, BH23 3QE",417668,93310,50.739135,-1.750984,01202 828083,https://www.hants.gov.uk/wasteandrecycling/recyclingcentres/hwrcfinder/Somerley
Hedge End Recycling Centre,1,South East,"Hedge End, Shamblehurst Lane South, Hedge End, Southampton, Hampshire, SO30 2FN",449125,114207,50.925234,-1.302422,01489 795499,https://www.hants.gov.uk/wasteandrecycling/recyclingcentres/hwrcfinder/Hedge-End
Netley Recycling Centre,1,South East,"Netley H W R C, Grange Road, Netley, Hampshire, SO31 8GD",446871,110140,50.888842,-1.335,02380 403960,https://www.hants.gov.uk/wasteandrecycling/recyclingcentres/hwrcfinder/Netley
Bishops Waltham Recycling Centre,1,South East,"Unit C, 30, Claylands Road, Bishops Waltham, Southampton, Hampshire, SO32 1BH",454749,117832,50.957323,-1.221867,01489 890844,https://www.hants.gov.uk/wasteandrecycling/recyclingcentres/hwrcfinder/Bishops-Waltham
Hayling Island Recycling Centre,1,South East,"Land/ Premises At, Fishery Lane, Hayling Island, Hampshire, PO11 9NR",473311,98763,50.783816,-0.961442,02392 637194,https://www.hants.gov.uk/wasteandrecycling/recyclingcentres/hwrcfinder/Hayling-Island
Hartley Wintney Recycling Centre,1,South East,"Hartlry Wintney H W R C, Springwell Lane, Hartley Wintney, Hampshire, RG27 8BW",477062,157957,51.315515,-0.895645,01252 843742,https://www.hants.gov.uk/wasteandrecycling/recyclingcentres/hwrcfinder/Hartley-Wintney
Eastleigh Recycling Centre,1,South East,"Eastleigh Household Waste Recycling Centre, Stoneycroft Rise, Chandlers Ford, Eastleigh, Hampshire, SO53 3YU",443061,118610,50.965301,-1.388165,02380 642764,https://www.hants.gov.uk/wasteandrecycling/recyclingcentres/hwrcfinder/Eastleigh
Portsmouth Recycling Centre,1,South East,"Paulsgrove H W R C, Portway, Portsmouth, Hampshire, PO6 4UD",463869,104772,50.83896,-1.094315,02392 387015,https://www.hants.gov.uk/wasteandrecycling/recyclingcentres/hwrcfinder/Portsmouth
Efford Recycling Centre,1,South East,"Efford H W R C, Milford Road, Pennington, Lymington, Hampshire, SO41 8EZ",431154,93123,50.736885,-1.5598816,01590 671874,https://www.hants.gov.uk/wasteandrecycling/recyclingcentres/hwrcfinder/Efford
Casbrook Recycling Centre,1,South East,"Casbrook H W R C, Bunny Lane, Timsbury, Romsey, Hampshire, SO51 0PG",436008,124884,51.022206,-1.487987,01794 367346,https://www.hants.gov.uk/wasteandrecycling/recyclingcentres/hwrcfinder/Casbrook
Andover Recycling Centre,1,South East,"Andover H W R C, Scott Close, Walworth Ind Est, Andover, Hampshire, SP10 5NU",438402,146004,51.211955,-1.451613,01264 353438,https://www.hants.gov.uk/wasteandrecycling/recyclingcentres/hwrcfinder/Andover
Billingshurst Recycling Centre,1,South East,NULL,507260,125754,51.021164,-0.472104,01403 785614,http://www.recycleforwestsussex.org/recycling-sites/billingshurst
Bognor Regis Recycling Centre,1,South East,"Shripney Road, Arun Business Park, Bognor Regis, PO22 9PP",494022,100464,50.796114,-0.667274,01243 827457,http://www.recycleforwestsussex.org/recycling-sites/bognor-regis/
Crawley Recycling Centre,1,South East,NULL,526950,138629,51.13287,-0.186965,01293 545861,http://www.recycleforwestsussex.org/recycling-sites/crawley/
Horsham Recycling Centre,1,South East,NULL,516066,128572,51.044785,-0.345704,01403 732497,http://www.recycleforwestsussex.org/recycling-sites/horsham/
East Grinstead Recycling Centre,1,South East,NULL,537745,137207,51.117602,-0.033346,01342 323967,http://www.recycleforwestsussex.org/recycling-sites/east-grinstead/
Littlehampton Recycling Centre,1,South East,NULL,502855,104002,50.826421,-0.540991,01903 713269,http://www.recycleforwestsussex.org/recycling-sites/littlehampton/
Midhurst Recycling Centre,1,South East,NULL,487797,121049,50.982164,-0.750658,01730 817949,http://www.recycleforwestsussex.org/recycling-sites/midhurst/
Shoreham Recycling Centre,1,South East,NULL,522715,105128,50.832687,-0.258791,01273 454081,http://www.recycleforwestsussex.org/recycling-sites/shoreham/
Westhampnett Recycling Centre,1,South East,NULL,488290,106118,50.847856,-0.747245,01243 787300,http://www.recycleforwestsussex.org/recycling-sites/westhampnett/
Worthing Recycling Centre,1,South East,NULL,516127,103843,50.822494,-0.352706,01903 203694,http://www.recycleforwestsussex.org/recycling-sites/worthing/
Bagshot Recycling Centre,1,South East,NULL,492108,163148,51.359944,-0.67849,01276 474 470,https://www.surreycc.gov.uk/waste-and-recycling/community-recycling-centres/bagshot
Camberley Recycling Centre,1,South East,NULL,486744,159251,51.325755,-0.756458,01276 684 980,https://www.surreycc.gov.uk/waste-and-recycling/community-recycling-centres/camberley
Caterham Recycling Centre,1,South East,NULL,533081,155831,51.286077,-0.093043,01883 343 605,https://www.surreycc.gov.uk/waste-and-recycling/community-recycling-centres/caterham
Cranleigh Recycling Centre,1,South East,NULL,503437,138878,51.139833,-0.522816,01483 273 836,https://www.surreycc.gov.uk/waste-and-recycling/community-recycling-centres/cranleigh
Dorking Recycling Centre,1,South East,NULL,515927,150093,51.23825,-0.340765,01306 887 471,https://www.surreycc.gov.uk/waste-and-recycling/community-recycling-centres/dorking
Earlswood Recycling Centre,1,South East,NULL,527693,148401,51.220534,-0.172911,01737 780372,https://www.surreycc.gov.uk/waste-and-recycling/community-recycling-centres/earlswood
Epsom Recycling Centre,1,South East,NULL,521089,161753,51.341974,-0.262882,01372 728 722,https://www.surreycc.gov.uk/waste-and-recycling/community-recycling-centres/epsom
Farnham Recycling Centre,1,South East,NULL,485220,147292,51.218477,-0.781172,01252 726 316,https://www.surreycc.gov.uk/waste-and-recycling/community-recycling-centres/farnham
Guildford Recycling Centre,1,South East,NULL,500258,152279,51.260862,-0.564504,01483 532 187,https://www.surreycc.gov.uk/waste-and-recycling/community-recycling-centres/guildford
Leatherhead Recycling Centre,1,South East,NULL,514997,157771,51.307448,-0.351613,01372 375 479,https://www.surreycc.gov.uk/waste-and-recycling/community-recycling-centres/leatherhead
Lyne (Chertsey) Recycling Centre,1,South East,NULL,501288,166315,51.386851,-0.545784,01932 560 271,https://www.surreycc.gov.uk/waste-and-recycling/community-recycling-centres/lyne
Shepperton Recycling Centre,1,South East,NULL,508538,168320,51.403533,-0.441002,01932 782 792,https://www.surreycc.gov.uk/waste-and-recycling/community-recycling-centres/shepperton
Warlingham Recycling Centre,1,South East,NULL,536028,158420,51.308647,-0.049824,01883 623 157,https://www.surreycc.gov.uk/waste-and-recycling/community-recycling-centres/warlingham
Witley Recycling Centre,1,South East,NULL,494642,140842,51.159013,-0.648001,01428 683 168,https://www.surreycc.gov.uk/waste-and-recycling/community-recycling-centres/witley
Woking Recycling Centre,1,South East,NULL,501810,161388,51.34247,-0.539695,01483 721 119,https://www.surreycc.gov.uk/waste-and-recycling/community-recycling-centres/woking
Newtown Road Recycling Centre,1,South East,NULL,447558,164617,51.37862,-1.318051,(01635) 519080,http://info.westberks.gov.uk/newtownroad
Padworth Recycling Centre,1,South East,NULL,461314,166908,51.397901,-1.12005,(01635) 519080,http://info.westberks.gov.uk/article/29413
Amersham Recycling Centre,1,South East,NULL,497789,196265,51.656679,-0.587728,01296 395000,https://www.buckscc.gov.uk/services/waste-and-recycling/locations/amersham/
Aston Clinton Recycling Centre,1,South East,NULL,487016,214034,51.818177,-0.73898,01296 395000,https://www.buckscc.gov.uk/services/waste-and-recycling/locations/aston-clinton/
Aylesbury Recycling Centre,1,South East,NULL,479334,214505,51.823545,-0.850319,01296 395000,https://www.buckscc.gov.uk/services/waste-and-recycling/locations/aylesbury/
Beaconsfield Recycling Centre,1,South East,NULL,496529,190052,51.601047,-0.607669,01296 395000,https://www.buckscc.gov.uk/services/waste-and-recycling/locations/beaconsfield/
Bledlow Ridge Recycling Centre,1,South East,NULL,478318,199258,51.686631,-0.868466,01296 395000,https://www.buckscc.gov.uk/services/waste-and-recycling/locations/bledlow-ridge/
Berkhampstead Recycling Centre,1,East of England,"Household Waste Recycling Centre, Northbridge Road, Berkhamsted, Hertfordshire, HP4 1EF",497844,208694,51.768383,-0.583469,0300 123 4040,https://www.hertfordshire.gov.uk/services/recycling-waste-and-environment/recycling-and-waste/where-can-i-recycle/household-waste-recycling-centres/berkhamsted-household-waste-recycling-centre.aspx
Bishop's Stortford Recycling Centre,1,East of England,"Woodside, Dunmow Road, Bishops Stortford, Hertfordshire, CM23 5RG",550801,221713,51.873613,0.189166,0300 123 4040,https://www.hertfordshire.gov.uk/services/recycling-waste-and-environment/recycling-and-waste/where-can-i-recycle/household-waste-recycling-centres/bishops-stortford-household-waste-recycling-centre.aspx
Buntingford Recycling Centre,1,East of England,"Aspenden Road, Buntingford, Hertfordshire, SG9 9PA",536425,228686,51.93996,-0.016787,0300 123 4040,https://www.hertfordshire.gov.uk/services/recycling-waste-and-environment/recycling-and-waste/where-can-i-recycle/household-waste-recycling-centres/buntingford-household-waste-recycling-centre.aspx
Cole Green Recycling Centre,1,East of England,"Hatfield Road ( A414 ), Cole Green, Hertfordshire, SG14 2NL",528260,211303,51.785694,-0.141944,0300 123 4040,https://www.hertfordshire.gov.uk/services/recycling-waste-and-environment/recycling-and-waste/where-can-i-recycle/household-waste-recycling-centres/cole-green-household-waste-recycling-centre.aspx
Elstree Recycling Centre,1,East of England,"Radnor Hall, Allum Lane, Elstree, Hertfordshire, WD6 3LS",519102,196327,51.65313,-0.279737,0300 123 4040,https://www.hertfordshire.gov.uk/services/recycling-waste-and-environment/recycling-and-waste/where-can-i-recycle/household-waste-recycling-centres/elstree-household-waste-recycling-centre.aspx
Harpenden Recycling Centre,1,East of England,"Land/premises At, Dark Lane, Harpenden, Hertfordshire, AL5 1QB",514703,213495,51.808334,-0.337669,0300 123 4040,https://www.hertfordshire.gov.uk/services/recycling-waste-and-environment/recycling-and-waste/where-can-i-recycle/household-waste-recycling-centres/harpenden-household-waste-recycling-centre.aspx
Hemel Hempstead Recycling Centre,1,East of England,"Eastman Way, Hemel Hempstead, Hertfordshire, HP2 7DU",507472,209155,51.770763,-0.443853,0300 123 4040,https://www.hertfordshire.gov.uk/services/recycling-waste-and-environment/recycling-and-waste/where-can-i-recycle/household-waste-recycling-centres/hemel-hempstead-household-waste-recycling-centre.aspx
Hoddesdon Recycling Centre,1,East of England,"Pindar Road, Hoddesdon, Hertfordshire, EN11 0BZ",538171,209166,51.764134,0.0008,0300 123 4040,https://www.hertfordshire.gov.uk/services/recycling-waste-and-environment/recycling-and-waste/where-can-i-recycle/household-waste-recycling-centres/hoddesdon-household-waste-recycling-centre.aspx
Letchworth Recycling Centre,1,East of England,"Blackhorse Road, Letchworth, Hertfordshire, SG6 1HB",523210,233586,51.987082,-0.20714,0300 123 4040,https://www.hertfordshire.gov.uk/services/recycling-waste-and-environment/recycling-and-waste/where-can-i-recycle/household-waste-recycling-centres/letchworth-household-waste-recycling-centre.aspx
Potters Bar Recycling Centre,1,East of England,"Cranbourne Road, Potters Bar, Hertfordshire, EN6 3JN",524343,202176,51.704556,-0.20196,0300 123 4040,https://www.hertfordshire.gov.uk/services/recycling-waste-and-environment/recycling-and-waste/where-can-i-recycle/household-waste-recycling-centres/potters-bar-household-waste-recycling-centre.aspx
Rickmansworth Recycling Centre,1,East of England,"Riverside Drive, Rickmansworth, Hertfordshire, WD3 1BN",505758,194371,51.638215,-0.473142,0300 123 4040,https://www.hertfordshire.gov.uk/services/recycling-waste-and-environment/recycling-and-waste/where-can-i-recycle/household-waste-recycling-centres/rickmansworth-household-waste-recycling-centre.aspx
Royston Recycling Centre,1,East of England,"Beverly Close, Off York Way, Royston, Hertfordshire, SG8 5WY",534926,241832,52.058457,-0.033381,0300 123 4040,https://www.hertfordshire.gov.uk/services/recycling-waste-and-environment/recycling-and-waste/where-can-i-recycle/household-waste-recycling-centres/royston-household-waste-recycling-centre.aspx
St Albans Recycling Centre,1,East of England,"Sandridge Road, St Albans, Hertfordshire, AL1 4AP",515458,208242,51.760969,-0.328469,0300 123 4040,https://www.hertfordshire.gov.uk/services/recycling-waste-and-environment/recycling-and-waste/where-can-i-recycle/household-waste-recycling-centres/st-albans-household-waste-recycling-centre.aspx
Stevenage Recycling Centre,1,East of England,"Caxton Way, Stevenage, Hertfordshire, SG1 2DF",522928,223613,51.897521,-0.21481,0300 123 4040,https://www.hertfordshire.gov.uk/services/recycling-waste-and-environment/recycling-and-waste/where-can-i-recycle/household-waste-recycling-centres/stevenage-household-waste-recycling-centre.aspx
Turnford Recycling Centre,1,East of England,"Fairways Industrial Estate, Brookfield Farm, Fairways, Turnford, Cheshunt, Hertfordshire, EN8 0NP",535801,204152,51.719659,-0.035476,0300 123 4040,https://www.hertfordshire.gov.uk/services/recycling-waste-and-environment/recycling-and-waste/where-can-i-recycle/household-waste-recycling-centres/turnford-household-waste-recycling-centre.aspx
Ware Recycling Centre,1,East of England,"Westmill Road, Ware, Hertfordshire, SG12 0EL",534777,215144,51.818678,-0.04603,0300 123 4040,https://www.hertfordshire.gov.uk/services/recycling-waste-and-environment/recycling-and-waste/where-can-i-recycle/household-waste-recycling-centres/ware-household-waste-recycling-centre.aspx
Waterdale (Garston) Recycling Centre,1,East of England,"St Albans Road, Garston, Watford, Hertfordshire, WD25 0PR",511938,201664,51.702563,-0.381563,0300 123 4040,https://www.hertfordshire.gov.uk/services/recycling-waste-and-environment/recycling-and-waste/where-can-i-recycle/household-waste-recycling-centres/waterdale-household-waste-recycling-centre.aspx
Leeming Bar Recycling Centre,1,Yorkshire and The Humber,,428262,490173,54.306383,-1.567164,01609 774400,https://www.yorwaste.co.uk/
Ambleside Recycling Centre,1,North West,NULL,337412,504131,54.428742,-2.966257,015394 32108,https://www.cumbria.gov.uk/planning-environment/waste-management/servicesincumbria/hwrcs/rothayholme.asp
Barrow in Furness Recycling Centre,1,North West,NULL,319196,470764,54.126364,-3.237949,01229 831564,https://www.cumbria.gov.uk/planning-environment/waste-management/servicesincumbria/hwrcs/projectfurness.asp
Brampton Recycling Centre,1,North West,NULL,352163,561046,54.941776,-2.74826,016977 41651,https://www.cumbria.gov.uk/planning-environment/waste-management/servicesincumbria/hwrcs/brampton.asp
Carlisle Recycling Centre,1,North West,NULL,340071,554862,54.884898,-2.935693,01228 531454,https://www.cumbria.gov.uk/planning-environment/waste-management/servicesincumbria/hwrcs/bousteads.asp
Frizington Recycling Centre,1,North West,NULL,303416,516830,54.537493,-3.494269,01946 813613,https://www.cumbria.gov.uk/planning-environment/waste-management/servicesincumbria/hwrcs/yeathouse.asp
Grange-over-Sands Recycling Centre,1,North West,NULL,339684,476663,54.182182,-2.925682,015395 35033,https://www.cumbria.gov.uk/planning-environment/waste-management/servicesincumbria/hwrcs/guideslot.asp
Kendal Recycling Centre,1,North West,NULL,351980,492654,54.327186,-2.739866,01539 728084,https://www.cumbria.gov.uk/planning-environment/waste-management/servicesincumbria/hwrcs/canalhead.asp
Kirkby Stephen Recycling Centre,1,North West,NULL,377202,509058,54.476362,-2.353327,017683 72540,https://www.cumbria.gov.uk/planning-environment/waste-management/servicesincumbria/hwrcs/hobsonslane.asp
Maryport Recycling Centre,1,North West,NULL,303093,535717,54.707105,-3.505514,01900 814162,https://www.cumbria.gov.uk/planning-environment/waste-management/servicesincumbria/hwrcs/glasson.asp
Millom Recycling Centre,1,North West,NULL,317466,479709,54.206453,-3.266871,01229 771447,https://www.cumbria.gov.uk/planning-environment/waste-management/servicesincumbria/hwrcs/redhills.asp
Penrith Recycling Centre,1,North West,NULL,345828,529357,54.656387,-2.8412,01768 480691,https://www.cumbria.gov.uk/planning-environment/waste-management/servicesincumbria/hwrcs/flusco.asp
Ulverston Recycling Centre,1,North West,NULL,329290,477951,54.192435,-3.085216,01229 581687,https://www.cumbria.gov.uk/planning-environment/waste-management/servicesincumbria/hwrcs/morecamberoad.asp
Wigton Recycling Centre,1,North West,NULL,326419,547313,54.815247,-3.14653,016973 45617,https://www.cumbria.gov.uk/planning-environment/waste-management/servicesincumbria/hwrcs/Sykepark.asp
Workington Recycling Centre,1,North West,NULL,299285,528095,54.637894,-3.561959,01900 66922,https://www.cumbria.gov.uk/planning-environment/waste-management/servicesincumbria/hwrcs/clayflatts.asp
Allendale Recycling Centre,1,North East,NULL,384436,555683,54.895635,-2.244199,0345 600 6400,https://www.northumberland.gov.uk/Waste/Tip.aspx
Alnwick Recycling Centre,1,North East,NULL,419729,611530,55.397326,-1.690057,0345 600 6400,https://www.northumberland.gov.uk/Waste/Tip.aspx
Bebside Recycling Centre,1,North East,NULL,427751,581242,55.124787,-1.566376,0345 600 6400,https://www.northumberland.gov.uk/Waste/Tip.aspx
Berwick Recycling Centre,1,North East,NULL,398994,655054,55.788792,-2.017611,0345 600 6400,https://www.northumberland.gov.uk/Waste/Tip.aspx
Haltwhistle Recycling Centre,1,North East,NULL,371338,564161,54.971235,-2.449264,0345 600 6400,https://www.northumberland.gov.uk/Waste/Tip.aspx
Hexham Recycling Centre,1,North East,NULL,394273,564993,54.979515,-2.091021,0345 600 6400,https://www.northumberland.gov.uk/Waste/Tip.aspx
Kirkley West Thorn Recycling Centre,1,North East,NULL,414441,576154,55.07963,-1.775343,0345 600 6400,https://www.northumberland.gov.uk/Waste/Tip.aspx
Morpeth Recycling Centre,1,North East,NULL,421841,586385,55.171299,-1.658667,0345 600 6400,https://www.northumberland.gov.uk/Waste/Tip.aspx
North Seaton Recycling Centre,1,North East,NULL,428774,586005,55.167527,-1.549853,0345 600 6400,https://www.northumberland.gov.uk/Waste/Tip.aspx
North Sunderland Recycling Centre,1,North East,NULL,421052,631606,55.57766,-1.667655,0845 600 6400,https://www.northumberland.gov.uk/Waste/Tip.aspx
Prudhoe Recycling Centre,1,North East,NULL,410744,563370,54.964844,-1.833725,0345 600 6400,https://www.northumberland.gov.uk/Waste/Tip.aspx
Wooler Recycling Centre,1,North East,NULL,399660,627663,55.54268,-2.006955,0345 600 6400,https://www.northumberland.gov.uk/Waste/Tip.aspx
Brunswick Recycling Centre,1,North East,NULL,422833,572518,55.046644,-1.644189,NULL,https://www.newcastle.gov.uk/services/environment-and-waste/recycling-rubbish-and-waste/household-waste-recycling-centres-0
Byker Recycling Centre,1,North East,NULL,427323,563770,54.96781,-1.574753,NULL,https://www.newcastle.gov.uk/services/environment-and-waste/recycling-rubbish-and-waste/household-waste-recycling-centres-0
Walbottle Recycling Centre,1,North East,NULL,416960,566109,54.989286,-1.73648,NULL,https://www.newcastle.gov.uk/services/environment-and-waste/recycling-rubbish-and-waste/household-waste-recycling-centres-0
Wallsend Road,1,North East,NULL,433283,567311,54.999275,-1.481266,NULL,https://my.northtyneside.gov.uk/category/82/household-waste-recycling-centretip
Middlefields Recycling Village,1,North East,NULL,435608,564488,54.973748,-1.445273,0191 455 5517,https://www.southtyneside.gov.uk/article/33365/Recycling-Village-and-permits
Campground Recycling Centre,1,North East,NULL,427838,558986,54.924792,-1.56717,NULL,https://www.gateshead.gov.uk/article/4573/Campground-waste-and-recycling-centre-Wrekenton
Cowen Road Recycling Centre,1,North East,NULL,419038,563316,54.964113,-1.70419,NULL,https://www.gateshead.gov.uk/article/4574/Cowen-Road-waste-and-recycling-centre-Blaydon-
Beach Street Recycling Centre,1,North East,NULL,438960,557630,54.911866,-1.393825,NULL,https://www.sunderland.gov.uk/article/12149/Waste-and-recycling-centres
Annfield Plain Recycling Centre,1,North East,NULL,417307,550812,54.851813,-1.731972,NULL,https://www.durham.gov.uk/hwrc
Coxhoe Recycling Centre,1,North East,NULL,432883,536593,54.723262,-1.490992,NULL,https://www.durham.gov.uk/hwrc
Heighington Recycling Centre,1,North East,NULL,427283,522210,54.594354,-1.579279,NULL,https://www.durham.gov.uk/hwrc
Hett Hills Recycling Centre,1,North East,NULL,423824,551353,54.856416,-1.63044,NULL,https://www.durham.gov.uk/hwrc
Horden Recycling Centre,1,North East,NULL,443976,542993,54.779927,-1.317812,NULL,https://www.durham.gov.uk/hwrc
Potterhouse Lane Recycling Centre,1,North East,NULL,426139,545726,54.805728,-1.594875,NULL,https://www.durham.gov.uk/hwrc
Middleton-in-Teesdale Recycling Centre,1,North East,NULL,394841,524679,54.617235,-2.081404,NULL,https://www.durham.gov.uk/hwrc
Romanway Recycling Centre,1,North East,NULL,420412,527169,54.639241,-1.685273,NULL,https://www.durham.gov.uk/hwrc
Stainton Grove Recycling Centre,1,North East,NULL,407248,518045,54.557603,-1.88945,NULL,https://www.durham.gov.uk/hwrc
Seaham Recycling Centre,1,North East,NULL,442102,549424,54.837883,-1.346028,NULL,https://www.durham.gov.uk/hwrc
Thornley Recycling Centre,1,North East,NULL,439587,539662,54.750359,-1.386498,NULL,https://www.durham.gov.uk/hwrc
Tudhoe Recycling Centre,1,North East,NULL,426791,535740,54.715957,-1.585649,NULL,https://www.durham.gov.uk/hwrc
Ashbourne Recycling Centre,1,East Midlands,"Mayfield Road, Ashbourne, Derbyshire, DE6 2BJ",416447,345742,53.008739,-1.756333,NULL,https://www.derbyshire.gov.uk/environment/rubbish-waste/recyling-centres/centre-locations/ashbourne/ashbourne-household-waste-recycling-centre.aspx
Bretby Recycling Centre,1,East Midlands,"Main Street, Newhall, Derbyshire, DE11 0TP",428210,320786,52.78392,-1.583185,NULL,https://www.derbyshire.gov.uk/environment/rubbish-waste/recyling-centres/centre-locations/bretby/bretby-household-waste-recycling-centre.aspx
Chesterfield Recycling Centre,1,East Midlands,"Stonegravels Lane, Off Sheffield Road, Chesterfield, S41 7LF",438488,372437,53.247562,-1.424665,NULL,https://www.derbyshire.gov.uk/environment/rubbish-waste/recyling-centres/centre-locations/chesterfield/chesterfield-household-waste-recycling-centre.aspx
Glossop Recycling Centre,1,East Midlands,"Melandra Road, Glossop, Derbyshire, SK13 6JQ",400610,395017,53.451912,-1.992282,NULL,https://www.derbyshire.gov.uk/environment/rubbish-waste/recyling-centres/centre-locations/glossop/glossop-household-waste-recycling-centre.aspx
Ilkeston Recycling Centre,1,East Midlands,"Manners Avenue, Ilkeston, Derbyshire, DE7 8EF",445762,342383,52.97687,-1.319932,NULL,https://www.derbyshire.gov.uk/environment/rubbish-waste/recyling-centres/centre-locations/ilkeston/ilkeston-household-waste-recycling-centre.aspx
Loscoe Recycling Centre,1,East Midlands,"Taylor Lane, Loscoe, Derby, DE75 7TA",442555,347590,53.023937,-1.367006,NULL,https://www.derbyshire.gov.uk/environment/rubbish-waste/recyling-centres/centre-locations/loscoe/loscoe-household-waste-recycling-centre.aspx
Northwood Darley Dale Recycling Centre,1,East Midlands,"Harrison Way, Darley Dale, Matlock, DE4 2LF",426122,364694,53.178731,-1.61061,NULL,https://www.derbyshire.gov.uk/environment/rubbish-waste/recyling-centres/centre-locations/northwood/northwood-darley-dale-household-waste-recycling-centre.aspx
Waterswallows Recycling Centre,1,East Midlands,"Waterswallows Road, Buxton, Derbyshire, SK17 7JB",408261,375282,53.274475,-1.87758,NULL,https://www.derbyshire.gov.uk/environment/rubbish-waste/recyling-centres/centre-locations/waterswallows/waterswallows-household-waste-recycling-centre.aspx
Armthorpe Recycling Centre,1,Yorkshire and The Humber,"Armthorpe Road, Pot Hill Armthorpe, Doncaster, DN2 5QB",461084,404403,53.53274,-1.0799,NULL,https://www.doncaster.gov.uk/services/bins-recycling-waste/household-waste-recycling-centres
Balby Recycling Centre,1,Yorkshire and The Humber,"Springwell Lane, Balby, Doncaster, DN4 9AX",455937,400314,53.496562,-1.158271,NULL,https://www.doncaster.gov.uk/services/bins-recycling-waste/household-waste-recycling-centres
Carcroft Recycling Centre,1,Yorkshire and The Humber,"Bentley Moor Lane, Carcroft, Doncaster, DN6 7BD",454841,409214,53.576685,-1.173237,NULL,https://www.doncaster.gov.uk/services/bins-recycling-waste/household-waste-recycling-centres
Conisbrough Recycling Centre,1,Yorkshire and The Humber,"Crookhill Road, Conisbrough, Doncaster, DN12 2AE",452185,398557,53.481156,-1.215115,NULL,https://www.doncaster.gov.uk/services/bins-recycling-waste/household-waste-recycling-centres
Hatfield Recycling Centre,1,Yorkshire and The Humber," Bootham Lane, Dunscroft, Doncaster, DN7 4JT",465609,410172,53.584041,-1.010434,NULL,https://www.doncaster.gov.uk/services/bins-recycling-waste/household-waste-recycling-centres
Rossington Recycling Centre,1,Yorkshire and The Humber,"Bankwood Lane Ind Est, Rossington, Doncaster, DN11 0PS",460772,398754,53.482007,-1.0857,NULL,https://www.doncaster.gov.uk/services/bins-recycling-waste/household-waste-recycling-centres
Greasbrough Recycling Centre,1,Yorkshire and The Humber,"Greasbrough Road, Greasbrough, Rotherham, S61 4QL",442432,394807,53.448326,-1.362572,NULL,https://www.rotherham.gov.uk/info/200084/bins_rubbish_and_recycling/144/find_a_household_waste_recycling_centre
Bramley Recycling Centre,1,Yorkshire and The Humber,"Ravenfield, Rotherham, South Yorkshire, S65 4LY",449165,392795,53.429659,-1.261516,NULL,https://www.rotherham.gov.uk/info/200084/bins_rubbish_and_recycling/144/find_a_household_waste_recycling_centre
Rawmarsh Recycling Centre,1,Yorkshire and The Humber,"Warren Vale Road, Rawmarsh, Rotherham, S62 7RW",444042,397078,53.468605,-1.338015,NULL,https://www.rotherham.gov.uk/info/200084/bins_rubbish_and_recycling/144/find_a_household_waste_recycling_centre
North Anston Recycling Centre,1,Yorkshire and The Humber,"Common Road, North Anston, Rotherham, S25 4AH",450798,385611,53.364956,-1.238095,NULL,https://www.rotherham.gov.uk/info/200084/bins_rubbish_and_recycling/144/find_a_household_waste_recycling_centre
Greaves Lane Recycling Centre,1,Yorkshire and The Humber,"Greaves Lane, High Green, Sheffield, S35 4GR",433788,398059,53.478178,-1.492369,NULL,https://www.veolia.co.uk/sheffield/recycling-sites/recycling-sites/household-waste-recycling-centres
Longley Avenue West Recycling Centre,1,Yorkshire and The Humber,"Longley Avenue West, Shirecliffe, Sheffield, S5 8WA",435297,390387,53.409123,-1.470491,NULL,https://www.veolia.co.uk/sheffield/recycling-sites/recycling-sites/household-waste-recycling-centres
Deepcar Recycling Centre,1,Yorkshire and The Humber,"Manchester Road, Deepcar, Sheffield, S36 2UU",429061,397296,53.471601,-1.563661,NULL,https://www.veolia.co.uk/sheffield/recycling-sites/recycling-sites/household-waste-recycling-centres
Beighton Road Recycling Centre,1,Yorkshire and The Humber,"Beighton, Sheffield, S13 7PS",442619,384525,53.355915,-1.361142,NULL,https://www.veolia.co.uk/sheffield/recycling-sites/recycling-sites/household-waste-recycling-centres
Blackstock Road Recycling Centre,1,Yorkshire and The Humber,"Blackstock Road, Gleadless, Sheffield, S14 1LW",436638,384196,53.353404,-1.451034,NULL,https://www.veolia.co.uk/sheffield/recycling-sites/recycling-sites/household-waste-recycling-centres
Smithies Lane Recycling Centre,1,Yorkshire and The Humber,"Smithies Lane, Smithies, Barnsley, S71 1NL",434889,408115,53.56849,-1.474664,NULL,https://www.barnsley.gov.uk/services/bins-rubbish-and-recycling/find-a-household-waste-recycling-centre/
Nicholas Lane Recycling Centre,1,Yorkshire and The Humber,"Nicholas Lane, Goldthorpe, Barnsley, S63 9AS",445475,404328,53.533645,-1.315381,NULL,https://www.barnsley.gov.uk/services/bins-rubbish-and-recycling/find-a-household-waste-recycling-centre/
Springvale Recycling Centre,1,Yorkshire and The Humber,"Sheffield Road, Springvale, Penistone, S36 6HJ",425712,402952,53.522612,-1.613651,NULL,https://www.barnsley.gov.uk/services/bins-rubbish-and-recycling/find-a-household-waste-recycling-centre/
West Street Recycling Centre,1,Yorkshire and The Humber,"West Street, Worsbrough, Barnsley, S70 5DJ",435437,403577,53.527666,-1.466903,NULL,https://www.barnsley.gov.uk/services/bins-rubbish-and-recycling/find-a-household-waste-recycling-centre/
Kirkless Recycling Centre,1,North West,"Makerfield Way, Ince, Wigan, WN2 2PR",360938,405746,53.546903,-2.590988,NULL,https://www.wigan.gov.uk/Resident/Bins-Recycling/Waste-and-Recycling-Centres.aspx
Slag Lane Recycling Centre,1,North West,"Slag Lane, Leigh, Wigan, WA3 1BT",362492,398774,53.484337,-2.5667,NULL,https://www.wigan.gov.uk/Resident/Bins-Recycling/Waste-and-Recycling-Centres.aspx
Chanters Industrial Estate Recycling Centre,1,North West,"Arley Way, Atherton, Wigan, M46 9BP",368463,402725,53.520242,-2.477122,NULL,https://www.wigan.gov.uk/Resident/Bins-Recycling/Waste-and-Recycling-Centres.aspx
George Street West Recycling Centre,1,North West,"George Street West, Blackburn, Lancashire, BB2 1PQ",367493,427725,53.74488,-2.494372,NULL,https://www.blackburn.gov.uk/waste-and-recycling/household-waste-recycling-centres/george-street-west-household-waste-recycling
Darwen Spring Vale Road Recycling Centre,1,North West,"Springvale Road, Darwen, Blackburn, BB3 2ES",369831,421067,53.685196,-2.45827,NULL,https://www.blackburn.gov.uk/waste-and-recycling/household-waste-recycling-centres/darwen-spring-vale-road-household-waste
Town Centre Recycling Centre,1,North West,"Burtonhead Road, St Helens, Merseyside, WA9 5EA",350819,394609,53.44594,-2.74194,NULL,https://www.sthelens.gov.uk/recycling-rubbish-waste/recycling/recycling-centres-bring-banks/town-centre-household-waste-recycling-centre/
Newton-le-Willows Recycling Centre,1,North West,"Junction Lane, Newton Le Willows, Merseyside, WA12 8DN",357378,394771,53.447984,-2.643216,NULL,https://www.sthelens.gov.uk/recycling-rubbish-waste/recycling/recycling-centres-bring-banks/newton-le-willows-household-waste-recycling-centre/
Rainhill Recycling Centre,1,North West,"Tasker Terrace, Rainhill, St Helens, L35 4NX",349219,391533,53.418141,-2.765531,NULL,https://www.sthelens.gov.uk/recycling-rubbish-waste/recycling/recycling-centres-bring-banks/rainhill-household-waste-recycling-centre/
Gatewarth Recycling Centre,1,North West,"Barnard Street, Great Sankey, Warrington, WA5 1DD",358693,387467,53.382441,-2.622458,NULL,https://www.warrington.gov.uk/gatewarth-community-recycling-centre
Woolston Recycling Centre,1,North West,"New Cut Lane, Woolston, Warrington, WA1 4AG",364000,389082,53.39733,-2.542864,NULL,https://www.warrington.gov.uk/woolston-community-recycling-centre
Stockton Heath Recycling Centre,1,North West,"Sandy Lane, Stockton Heath, Warrington, WA4 2AY",361700,385970,53.369197,-2.577073,NULL,https://www.warrington.gov.uk/stockton-heath-community-recycling-centre
Blackpool Recycling Centre,1,North West,"Bristol Avenue, Bispham, Blackpool, FY2 0JG",332107,439753,53.849555,-3.033503,NULL,https://www.blackpool.gov.uk/Residents/Waste-and-recycling/Tip-and-household-waste-recycling-centre/Tip-and-household-waste-recycling-centre.aspx
South Sefton Recycling Centre,1,North West,"Irlam Road, Bootle, Liverpool, L20 4AE",333690,395295,53.450224,-2.999944,NULL,https://www.sefton.gov.uk/bins-recycling/local-tips-and-recycling-centres.aspx
Sefton Meadows Recycling Centre,1,North West,"Sefton Lane, Maghull, Liverpool, L31 8BT",336255,401659,53.507736,-2.962621,NULL,https://www.sefton.gov.uk/bins-recycling/local-tips-and-recycling-centres.aspx
Southport Recycling Centre,1,North West,"Foul Lane, Blowick, Southport, PR8 5LA",336148,416097,53.637494,-2.96719,NULL,https://www.sefton.gov.uk/bins-recycling/local-tips-and-recycling-centres.aspx
Formby Recycling Centre,1,North West,"Altcar Road, Formby, Merseyside, L37 8DL",331084,406883,53.55403,-3.041728,NULL,https://www.sefton.gov.uk/bins-recycling/local-tips-and-recycling-centres.aspx
Huyton Recycling Centre,1,North West,"Wilson Road, Huyton, Knowsley, L36 6AD",345837,389646,53.400845,-2.816087,NULL,"https://www.knowsley.gov.uk/residents/bins,-waste-and-environment/tips-and-recycling"
Kirkby Recycling Centre,1,North West,"Woodward Road, Simonswood, Kirkby, L33 7UZ",343427,399504,53.48919,-2.854105,NULL,"https://www.knowsley.gov.uk/residents/bins,-waste-and-environment/tips-and-recycling"
Otterspool Recycling Centre,1,North West,"Jericho Lane, Liverpool, Merseyside, L17 5AR",337683,386252,53.36944,-2.938037,NULL,https://liverpool.gov.uk/bins-and-recycling/find-a-recycling-centre-or-rubbish-tip/
Old Swan Recycling Centre,1,North West,"Cheadle Avenue, Old Swan, Liverpool, L13 3AE",338741,391430,53.416117,-2.923145,NULL,https://liverpool.gov.uk/bins-and-recycling/find-a-recycling-centre-or-rubbish-tip/
Bidston Recycling Centre,1,North West,"Wallasey Bridge Road, Birkenhead, Merseyside, CH41 1EB",329777,390696,53.408386,-3.057827,NULL,https://www.merseysidewda.gov.uk/waste-recycling/household-waste-recycling-centres-hwrcs/
Clatterbridge Recycling Centre,1,North West,"Mount Road, Clatterbridge, Wirral, CH63 4JZ",332213,382336,53.333572,-3.019393,NULL,https://www.merseysidewda.gov.uk/waste-recycling/household-waste-recycling-centres-hwrcs/
West Kirby Recycling Centre,1,North West,"Greenbank Road, West Kirkby, Liverpool, CH48 5HL",321884,387575,53.379227,-3.175761,NULL,https://www.merseysidewda.gov.uk/waste-recycling/household-waste-recycling-centres-hwrcs/
Runcorn Recycling Centre,1,NULL,NULL,NULL,NULL,NULL,NULL,NULL,https://www3.halton.gov.uk/Pages/Bins/Household-Recycling-Centres.aspx
Altham (Whinney Hill) Recycling Centre,1,North West,"Whinney Hill Road, Clayton Le Moors, Accrington, BB5 5UU",376383,430168,53.767317,-2.359767,NULL,https://www.lancashire.gov.uk/waste-and-recycling/recycling-centres/altham-whinney-hill/
Barnoldswick Recycling Centre,1,North West,"West Close Road, Barnoldswick, Lancashire, BB18 5EN",387711,447252,53.921272,-2.188607,NULL,https://www.lancashire.gov.uk/waste-and-recycling/recycling-centres/barnoldswick/
Burnley Recycling Centre,1,North West,"Balderstone Lane, Heasandford, Burnley, BB10 2AL",386099,434447,53.806129,-2.212564,NULL,https://www.lancashire.gov.uk/waste-and-recycling/recycling-centres/burnley/
Burscough Recycling Centre,1,North West,"Abbey Lane, Burscough, Ormskirk, L40 7SR",343325,410275,53.585982,-2.857597,NULL,https://www.lancashire.gov.uk/waste-and-recycling/recycling-centres/burscough/
Carnforth Recycling Centre,1,North West,"Scotland Road, Carnforth, Lancashire, LA5 9RQ",350585,471643,54.138237,-2.757845,NULL,https://www.lancashire.gov.uk/waste-and-recycling/recycling-centres/carnforth/
Chorley Recycling Centre,1,North West,"Coppull Road, Chorley, Lancashire, PR7 3QN",357145,415650,53.635605,-2.649593,NULL,https://www.lancashire.gov.uk/waste-and-recycling/recycling-centres/chorley/
Clitheroe Recycling Centre,1,North West,"Henthorn Road, Clitheroe, Lancashire, BB7 3BY",372637,440390,53.859019,-2.417508,NULL,https://www.lancashire.gov.uk/waste-and-recycling/recycling-centres/clitheroe/
Farington Recycling Centre,1,North West,"Flensburg Way, Farrington Moss, Lancashire, PR26 6RA",353249,424775,53.717281,-2.709887,NULL,https://www.lancashire.gov.uk/waste-and-recycling/recycling-centres/farington/
Fleetwood Recycling Centre,1,North West,"Jameson Road, Fleetwood, Lancashire, FY7 8TW",333081,446099,53.906722,-3.020081,NULL,https://www.lancashire.gov.uk/waste-and-recycling/recycling-centres/fleetwood/
Garstang Community Recycling Centre and Re-use Centre,1,North West,"Brockholes Way, Claughton, Catterall, PR3 0PZ",350332,442243,53.873999,-2.756906,NULL,https://www.lancashire.gov.uk/waste-and-recycling/recycling-centres/garstang/
Haslingden (Duckworth Clough) Recycling Centre,1,North West,"Clough End Road, Haslingden, Rossendale, BB4 5AN",378807,424464,53.716155,-2.322601,NULL,https://www.lancashire.gov.uk/waste-and-recycling/recycling-centres/haslingden/
Lancaster Recycling Centre,1,North West,"Salt Ayre Lane, Lancaster, Lancashire, LA1 5JS",346370,462297,54.053835,-2.82069,NULL,https://www.lancashire.gov.uk/waste-and-recycling/recycling-centres/lancaster/
Longridge Recycling Centre,1,North West,"Chapel Hill Road, Longridge, Preston, PR3 3JY",360490,436845,53.826374,-2.601722,NULL,https://www.lancashire.gov.uk/waste-and-recycling/recycling-centres/longridge/
Lytham Recycling Centre,1,North West,"Saltcotes Road, Lytham St Annes, Lancashire, FY8 4LS",337879,429084,53.754399,-2.943623,NULL,https://www.lancashire.gov.uk/waste-and-recycling/recycling-centres/lytham/
Preston Recycling Centre,1,North West,"Tom Benson Way, Ingol, Preston, PR2 1SG",350291,431481,53.777276,-2.755786,NULL,https://www.lancashire.gov.uk/waste-and-recycling/recycling-centres/preston/
Skelmersdale Recycling Centre,1,North West,"Glenburn Road, Skelmersdale, Lancashire, WN8 6JW",347647,407632,53.562678,-2.791873,NULL,https://www.lancashire.gov.uk/waste-and-recycling/recycling-centres/skelmersdale/
Darlington Recycling Centre,1,North East,"Mewburn Road, Drinkfield, Darlington, DL3 0XE",428518,517660,54.553398,-1.560605,NULL,https://www.darlington.gov.uk/environment-and-planning/street-scene/household-waste-recycling-centre-tip/
Haverton Hill Recycling Centre,1,North East,"Haverton Hill Road, Billingham, Stockton On Tees, TS23 1PY",447797,521995,54.590905,-1.261856,NULL,https://www.stockton.gov.uk/environment-and-housing/waste-collection-and-recycling/recycling-centres/
Hartlepool Recycling Centre,1,North East,"Burn Road, Hartlepool, Cleveland, TS25 1PL",451237,531818,54.678835,-1.206911,01429 523333,https://www.hartlepool.gov.uk/recyclingcentre
Dunsdale Recycling Centre,1,North East,"Dunsdale, Guisborough, Cleveland, TS14 6RG",461791,517656,54.550391,-1.04622,01642 774774,https://www.redcar-cleveland.gov.uk/resident/bins-waste-and-recycling/waste-sites/Pages/Dunsdale-HRWC.aspx
Burniston Recycling Centre,1,Yorkshire and The Humber,"Burniston Road, Scarborough, North Yorkshire, YO13 0DA",502622,491508,54.308885,-0.424241,NULL,https://www.northyorks.gov.uk/burniston-household-waste-recycling-centre
Catterick Bridge Recycling Centre,1,Yorkshire and The Humber,"Gatherley Road, Catterick Bridge, Richmond, DL10 7JD",422505,500069,54.395614,-1.6549,NULL,https://www.northyorks.gov.uk/catterick-bridge-household-waste-recycling-centre
Harrogate Recycling Centre,1,Yorkshire and The Humber,"Stonefall, Wetherby Road, Harrogate, HG3 1DE",433097,454552,53.985965,-1.496756,NULL,https://www.northyorks.gov.uk/harrogate-household-waste-recycling-centre
Leeming Bar Recycling Centre,1,Yorkshire and The Humber,"Tutin Road, Leeming Bar Ind Est, York, DL7 9UJ",428262,490173,54.306383,-1.567164,NULL,https://www.northyorks.gov.uk/leeming-bar-household-waste-recycling-centre
Leyburn Recycling Centre,1,Yorkshire and The Humber,"Shawl Quarry Lane, Leeming Bar Industrial Estate, Leyburn, DL8 5LA",410318,491052,54.314956,-1.8429,NULL,https://www.northyorks.gov.uk/leyburn-household-waste-recycling-centre
Malton and Norton Recycling Centre,1,Yorkshire and The Humber,"Pasture Lane, Malton, North Yorkshire, YO17 6BT",478622,472592,54.143172,-0.797953,NULL,https://www.northyorks.gov.uk/malton-and-norton-household-waste-recycling-centre
Northallerton Recycling Centre,1,Yorkshire and The Humber,"Yafforth Road, Northallerton, North Yorkshire, DL7 0LG",435502,494784,54.347371,-1.455355,NULL,https://www.northyorks.gov.uk/northallerton-household-waste-recycling-centre
Ripon Recycling Centre,1,Yorkshire and The Humber,"Dallamires Crescent, Dallamires Lane, Ripon, HG4 1TT",431897,470486,54.129257,-1.513392,NULL,https://www.northyorks.gov.uk/ripon-household-waste-recycling-centre
Seamer Carr Recycling Centre,1,Yorkshire and The Humber,"Dunslow Road, Eastfield, North Yorkshire, YO12 4QA",503209,482387,54.226809,-0.418346,NULL,https://www.northyorks.gov.uk/seamer-carr-household-waste-recycling-centre
Selby Recycling Centre,1,Yorkshire and The Humber,"Canal Road, Selby, North Yorkshire, YO8 8AG",461993,432038,53.780988,-1.060684,NULL,https://www.northyorks.gov.uk/selby-household-waste-recycling-centre
Settle Recycling Centre,1,Yorkshire and The Humber,"Sowarth Field Ind Est, Sowarth Field, Settle, BD24 9AF",381510,463620,54.068194,-2.284026,NULL,https://www.northyorks.gov.uk/settle-household-waste-recycling-centre
Sowerby Recycling Centre,1,Yorkshire and The Humber,"Ox Moor, Plantation Lane, Thirsk, YO7 1FA",443337,480153,54.215297,-1.336955,NULL,https://www.northyorks.gov.uk/sowerby-household-waste-recycling-centre
Skipton Recycling Centre,1,Yorkshire and The Humber,"Harrogate Road, Skibeden, Skipton, BD23 6AB",401344,452711,53.970484,-1.981004,NULL,https://www.northyorks.gov.uk/skipton-household-waste-recycling-centre
Stokesley Recycling Centre,1,Yorkshire and The Humber,"Ellerbeck Court, Stokesley Business Park, Stokesley, TS9 5PT",453537,507693,54.461802,-1.175616,NULL,https://www.northyorks.gov.uk/stokesley-household-waste-recycling-centre
Tadcaster Recycling Centre,1,Yorkshire and The Humber,"Station Road Ind Est, Tadcaster, North Yorkshire, LS24 9SG",448194,443170,53.882509,-1.268338,NULL,https://www.northyorks.gov.uk/tadcaster-household-waste-recycling-centre
Tholthorpe Recycling Centre,1,Yorkshire and The Humber,"Flawith Road, Tholthorpe, North Yorkshire, YO61 1SG",447464,466431,54.091603,-1.275821,NULL,https://www.northyorks.gov.uk/tholthorpe-household-waste-recycling-centre
Thornton-le-Dale Recycling Centre,1,Yorkshire and The Humber,"Outgang Lane, Thornton Le Dale, Pickering, YO18 7JA",480620,483379,54.23977,-0.764477,NULL,https://www.northyorks.gov.uk/thornton-le-dale-household-waste-recycling-centre
West Harrogate Recycling Centre,1,Yorkshire and The Humber,"Penny Pot Lane, Hampsthwaite, Harrogate, HG3 2SN",425240,455779,53.997434,-1.616471,NULL,https://www.northyorks.gov.uk/west-harrogate-household-waste-recycling-centre
Whitby Recycling Centre,1,Yorkshire and The Humber,"Discovery Way, Whitby Industrial Estate, Whitby, YO22 4PZ",490840,509559,54.473289,-0.599753,NULL,https://www.northyorks.gov.uk/whitby-household-waste-recycling-centre
Wombleton Recycling Centre,1,Yorkshire and The Humber,"Cockerhill Lane, Wombleton, North Yorkshire, YO62 7RJ",466813,484288,54.249923,-0.976087,NULL,https://www.northyorks.gov.uk/wombleton-household-waste-recycling-centre
Airmyn Recycling Centre,1,Yorkshire and The Humber,"Airmyn Road, Airmyn, Goole, DN14 8JZ",471359,424303,53.710301,-0.92036,NULL,https://www.eastriding.gov.uk/environment/bins-rubbish-recycling/tips-and-recycling-sites/recycling-site-finder/?entryid72=81753
Beverley Recycling Centre,1,Yorkshire and The Humber,"Wiltshire Road, Hull, Humberside, HU4 6PA",506626,427230,53.730596,-0.385239,NULL,https://www.eastriding.gov.uk/environment/bins-rubbish-recycling/tips-and-recycling-sites/recycling-site-finder/?entryid72=81755
Carnaby Recycling Centre,1,Yorkshire and The Humber,"Moor Lane, Carnaby, Bridlington, YO16 4UZ",515129,464807,54.066347,-0.242294,NULL,https://www.eastriding.gov.uk/environment/bins-rubbish-recycling/tips-and-recycling-sites/recycling-site-finder/?entryid72=81756&p=2
Driffield Recycling Centre,1,Yorkshire and The Humber,"Church Lane, Driffield, East Yorkshire, YO25 9DJ",500907,457030,53.999474,-0.462109,NULL,https://www.eastriding.gov.uk/environment/bins-rubbish-recycling/tips-and-recycling-sites/recycling-site-finder/?entryid72=81757&p=2
Hessle Recycling Centre,1,Yorkshire and The Humber,"Humberfield Quarry, Boothferry Road, Hessle, HU13 0JD",501621,426170,53.722068,-0.461421,NULL,https://www.eastriding.gov.uk/environment/bins-rubbish-recycling/tips-and-recycling-sites/recycling-site-finder/?entryid72=81758&p=3
Hornsea Recycling Centre,1,Yorkshire and The Humber,"Atwick Road, Hornsea, East Yorkshire, HU18 1EJ",519558,448704,53.920685,-0.180972,NULL,https://www.eastriding.gov.uk/environment/bins-rubbish-recycling/tips-and-recycling-sites/recycling-site-finder/?entryid72=81759&p=4
Market Weighton Recycling Centre,1,Yorkshire and The Humber,"Market Weighton Road, Holme On Spalding Moor, YO43 4ED",482747,439306,53.843437,-0.743853,NULL,https://www.eastriding.gov.uk/environment/bins-rubbish-recycling/tips-and-recycling-sites/recycling-site-finder/?entryid72=81760&p=4
Pocklington Recycling Centre,1,Yorkshire and The Humber,"Burnby Lane, Pocklington, East Yorkshire, YO42 1UL",481846,447567,53.917791,-0.755334,NULL,https://www.eastriding.gov.uk/environment/bins-rubbish-recycling/tips-and-recycling-sites/recycling-site-finder/?entryid72=81761&p=5
Preston Recycling Centre,1,Yorkshire and The Humber,"Staithes Road, Preston, Hull, HU12 8DN",516878,428847,53.742908,-0.2293,NULL,https://www.eastriding.gov.uk/environment/bins-rubbish-recycling/tips-and-recycling-sites/recycling-site-finder/?entryid72=81762&p=5
Withernsea Recycling Centre,1,Yorkshire and The Humber,"Hull Road, Withernsea, East Yorkshire, HU19 2EG",533558,427926,53.730634,0.023053,NULL,https://www.eastriding.gov.uk/environment/bins-rubbish-recycling/tips-and-recycling-sites/recycling-site-finder/?entryid72=81763&p=6
Hazel Court Recycling Centre,1,Yorkshire and The Humber,"Hazel Court, James Street, York, YO10 3DS",461506,451857,53.959171,-1.064116,01904 551550,https://www.york.gov.uk/HazelCourtHWRC
Towthorpe/Strensall Recycling Centre,1,Yorkshire and The Humber,"Towthorpe Lane, Towthorpe, Strensall, YO32 9ST",464854,458488,54.018333,-1.011681,01904 551551,https://www.york.gov.uk/TowthorpeStrensallHWRC
Kirkstall Recycling Centre,1,Yorkshire and The Humber,"Evanston Avenue, Kirkstall Road, Leeds, LS4 2HR",427487,434444,53.80557,-1.584104,0113 378 4695,https://www.leeds.gov.uk/residents/bins-and-recycling/recycling-sites/kirkstall-road-household-waste-sorting-site
Meanwood Recycling Centre,1,Yorkshire and The Humber,"Meanwood Road, Meanwood, Leeds, LS7 2LP",429382,436061,53.820016,-1.555181,0113 378 4695,https://www.leeds.gov.uk/residents/bins-and-recycling/recycling-sites/meanwood-road-household-waste-sorting-site
Middleton Recycling Centre,1,Yorkshire and The Humber,"Holmewell Road, Middleton, Leeds, LS10 1LP",430917,432746,53.790118,-1.532192,0113 378 4695,https://www.leeds.gov.uk/residents/bins-and-recycling/recycling-sites/holmewell-road-household-waste-sorting-site
Ellar Ghyll Recycling Centre,1,Yorkshire and The Humber,"Bradford Road, Otley, LS21 3DN",418046,444557,53.896875,-1.726868,0113 378 4695,https://www.leeds.gov.uk/residents/bins-and-recycling/recycling-sites/ellar-ghyll-household-waste-sorting-site
Pudsey Recycling Centre,1,Yorkshire and The Humber,"Richardshaw Road, Grangefield Industrial Estate, Pudsey, LS28 6LG",422739,434387,53.8052,-1.655388,0113 378 4695,https://www.leeds.gov.uk/residents/bins-and-recycling/recycling-sites/pudsey-grangefield-household-waste-sorting-site
Seacroft Recycling Centre,1,Yorkshire and The Humber,"Seacroft, Leeds, West Yorkshire, LS14 1NR",435466,438064,53.837624,-1.462535,0113 378 4695,https://www.leeds.gov.uk/residents/bins-and-recycling/recycling-sites/east-leeds-household-waste-sorting-site
Wetherby Recycling Centre,1,Yorkshire and The Humber,"Thorpe Arch Trading Estate, Wetherby, West Yorkshire, LS23 7BJ",444735,446969,53.916942,-1.320396,0113 378 4695,https://www.leeds.gov.uk/residents/bins-and-recycling/recycling-sites/thorp-arch-household-waste-sorting-site
Yeadon Recycling Centre,1,Yorkshire and The Humber,"Milners Road, Yeadon, Leeds, LS19 7JE",419408,440911,53.864057,-1.706372,0113 378 4695,https://www.leeds.gov.uk/residents/bins-and-recycling/recycling-sites/milners-road-household-waste-sorting-site
Sutton Fields Recycling Centre,1,Yorkshire and The Humber,"Amsterdam Road, Sutton Fields, Kingston Upon Hull, HU7 0XF",510414,432384,53.776113,-0.326007,NULL,http://www.hull.gov.uk/bins-and-recycling/recycling/household-waste-recycling-centres
Wiltshire Road Recycling Centre,1,Yorkshire and The Humber,"Wiltshire Road, Hull, Humberside, HU4 6PA",506626,427230,53.730596,-0.385239,NULL,http://www.hull.gov.uk/bins-and-recycling/recycling/household-waste-recycling-centres
Burma Drive Recycling Centre,1,Yorkshire and The Humber,"Burma Drive, Marfleet, Hull, HU9 5SD",513637,429747,53.751731,-0.278093,NULL,http://www.hull.gov.uk/bins-and-recycling/recycling/household-waste-recycling-centres
Glasshoughton Recycling Centre,1,Yorkshire and The Humber,"Flass Lane, Glasshoughton, Wakefield, WF10 5JW",442355,423967,53.710414,-1.359786,0345 8 506 506,http://www.wakefield.gov.uk/bins-and-environment/bins-and-recycling/recycling/household-waste-recycling-centres-(hwrc)
South Kirkby Recycling Centre,1,Yorkshire and The Humber,"South Kirkby, Wakefield, West Yorkshire, WF9 3SD",445334,411518,53.598279,-1.316468,0345 8 506 506,http://www.wakefield.gov.uk/bins-and-environment/bins-and-recycling/recycling/household-waste-recycling-centres-(hwrc)
Wakefield Recycling Centre,1,Yorkshire and The Humber,"Denby Dale Road, Wakefield, Wakefield, WF2 7AH",432755,419183,53.668105,-1.505725,0345 8 506 506,http://www.wakefield.gov.uk/bins-and-environment/bins-and-recycling/recycling/household-waste-recycling-centres-(hwrc)
Bromyard Recycling Centre,1,West Midlands,"Linton Industrial Estate, Bromyard, Herefordshire, HR7 4QT",366766,254094,52.184085,-2.487505,01885 489168,https://www.herefordshire.gov.uk/directory_record/34/bromyard_household_recycling_centre
Bodmin Recycling Centre,1,South West,"Wheal Prosper, Lanivet, Bodmin, PL30 5ET",203755,64276,50.44543,-4.765384,01726 828230,https://www.cornwall.gov.uk/environment-and-planning/recycling-rubbish-and-waste/household-waste-and-recycling-centres/
Bude Recycling Centre,1,South West,"Kilkhampton Road, Bude, Cornwall, EX23 9PZ",224149,109517,50.858358,-4.499943,01726 828230,https://www.cornwall.gov.uk/environment-and-planning/recycling-rubbish-and-waste/household-waste-and-recycling-centres/
Connon Bridge Recycling Centre,1,South West,"East Taphouse, Liskeard, Cornwall, PL14 4NP",218352,61937,50.429107,-4.558922,01726 828230,https://www.cornwall.gov.uk/environment-and-planning/recycling-rubbish-and-waste/household-waste-and-recycling-centres/
Falmouth and Penryn Recycling Centre,1,South West,"Carveth Farm, Falmouth, Cornwall, TR10 9DH",175615,34917,50.171709,-5.143677,01726 828230,https://www.cornwall.gov.uk/environment-and-planning/recycling-rubbish-and-waste/household-waste-and-recycling-centres/
Helston Recycling Centre,1,South West,"Gays Hill, Helston, Cornwall, TR13 0QA",167045,26421,50.092104,-5.258352,01726 828230,https://www.cornwall.gov.uk/environment-and-planning/recycling-rubbish-and-waste/household-waste-and-recycling-centres/
Launceston Recycling Centre,1,South West,"Bangors Road, Pennygillam Ind Est, Launceston, PL15 7PY",231739,83551,50.627317,-4.380337,01726 828230,https://www.cornwall.gov.uk/environment-and-planning/recycling-rubbish-and-waste/household-waste-and-recycling-centres/
Newquay Recycling Centre,1,South West,"Tregurra Park, Newquay Road, Truro, TR1 1RH",183715,45812,50.272557,-5.036674,01726 828230,https://www.cornwall.gov.uk/environment-and-planning/recycling-rubbish-and-waste/household-waste-and-recycling-centres/
Dudnance Lane Recycling Centre,1,South West,"Wilson Way, Pool, Redruth, TR15 3RT",167515,41250,50.225439,-5.260844,01726 828230,https://www.cornwall.gov.uk/environment-and-planning/recycling-rubbish-and-waste/household-waste-and-recycling-centres/
Saltash Recycling Centre,1,South West,"Tamar View Industrial Estate, Saltash, Cornwall, PL12 6LD",241418,60338,50.421424,-4.23376,01726 828230,https://www.cornwall.gov.uk/environment-and-planning/recycling-rubbish-and-waste/household-waste-and-recycling-centres/
St Austell Recycling Centre,1,South West,"Menear Road, St Austell, Cornwall, PL25 3TD",203521,54411,50.356738,-4.763513,01726 828230,https://www.cornwall.gov.uk/environment-and-planning/recycling-rubbish-and-waste/household-waste-and-recycling-centres/
United Mines Recycling Centre,1,South West,"United Downs, St Day, Redruth, TR15 3QX",166655,40641,50.219642,-5.272457,01726 828230,https://www.cornwall.gov.uk/environment-and-planning/recycling-rubbish-and-waste/household-waste-and-recycling-centres/
St Erth Recycling Centre,1,South West,"Treloweth Lane, St Erth, Hayle, TR27 6JP",154376,35361,50.16727,-5.440855,01726 828230,https://www.cornwall.gov.uk/environment-and-planning/recycling-rubbish-and-waste/household-waste-and-recycling-centres/
Truro Recycling Centre,1,South West,"Tregurra Park, Newquay Road, Truro, TR1 1RH",183715,45812,50.272557,-5.036674,01726 828230,https://www.cornwall.gov.uk/environment-and-planning/recycling-rubbish-and-waste/household-waste-and-recycling-centres/
Bowling Back Lane Recycling Centre,1,Yorkshire and The Humber,"Bowling Back Lane, Bradford, West Yorkshire, BD4 8SZ",418203,432495,53.788459,-1.725189,01274 432111,https://www.bradford.gov.uk/recycling-and-waste/household-waste-recycling-centres/household-waste-recycling-centres/bowling-back-lane-hwrc/
Dealburn Back Recycling Centre,1,Yorkshire and The Humber,"Dealburn Road, Low Moor, Bradford, BD12 0RG",416147,428015,53.74826,-1.756628,01274 432111,https://www.bradford.gov.uk/recycling-and-waste/household-waste-recycling-centres/household-waste-recycling-centres/dealburn-road-hwrc/
Dowley Gap Recycling Centre,1,Yorkshire and The Humber,"Wagon Lane, Bingley, West Yorkshire, BD16 1TP",412088,438242,53.840289,-1.817781,01274 432111,https://www.bradford.gov.uk/recycling-and-waste/household-waste-recycling-centres/household-waste-recycling-centres/dowley-gap-hwrc/
Ford Hill Recycling Centre,1,Yorkshire and The Humber,"Hill End Lane, Ford Hill, Queensbury, BD13 2NQ",409571,429682,53.763404,-1.856294,01274 432111,https://www.bradford.gov.uk/recycling-and-waste/household-waste-recycling-centres/household-waste-recycling-centres/ford-hill-hwrc/
Golden Butts Recycling Centre,1,Yorkshire and The Humber,"Golden Butts Road, Ilkley, West Yorkshire, LS29 8HS",412033,447734,53.925602,-1.818247,01274 432111,https://www.bradford.gov.uk/recycling-and-waste/household-waste-recycling-centres/household-waste-recycling-centres/golden-butts-hwrc/
Keighley Recycling Centre,1,Yorkshire and The Humber,"Royd Ings Avenue, Keighley, West Yorkshire, BD21 4BZ",406926,442218,53.876132,-1.896143,01274 432111,https://www.bradford.gov.uk/recycling-and-waste/household-waste-recycling-centres/household-waste-recycling-centres/keighley-hwrc/
Midland Road Recycling Centre,1,Yorkshire and The Humber,"Midland Road, Manningham, Bradford, BD8 7DQ",415964,434476,53.806337,-1.759071,01274 432111,https://www.bradford.gov.uk/recycling-and-waste/household-waste-recycling-centres/household-waste-recycling-centres/midland-road-hwrc/
Sugden End Road Recycling Centre,1,Yorkshire and The Humber,"Halifax Road, Sugden End, Keighley, BD21 5PS",404722,437327,53.832196,-1.929739,01274 432111,https://www.bradford.gov.uk/recycling-and-waste/household-waste-recycling-centres/household-waste-recycling-centres/sugden-end-hwrc/
Brighouse Recycling Centre,1,Yorkshire and The Humber,"Towthorpe Lane, Towthorpe, Strensall, YO32 9ST",464854,458488,54.018333,-1.011681,NULL,https://calderdale.gov.uk/v2/residents/environment-planning-and-building/waste-and-recycling/household-waste-recycling-centres/brighouse
Halifax Recycling Centre,1,Yorkshire and The Humber,"Ovenden Road, Lee Bank, Halifax, HX3 5PN",408423,426635,53.736037,-1.873791,01422 417720,https://calderdale.gov.uk/v2/residents/environment-planning-and-building/waste-and-recycling/household-waste-recycling-centres/halifax
Sowerby Bridge Recycling Centre,1,Yorkshire and The Humber,"Meerclough Road, Sowerby Bridge, Halifax, HX6 2AY",407034,423769,53.710298,-1.894911,NULL,https://calderdale.gov.uk/v2/residents/environment-planning-and-building/waste-and-recycling/household-waste-recycling-centres/sowerby-bridge
Todmorden Recycling Centre,1,Yorkshire and The Humber,"Halifax Road, Todmorden, Lancashire, OL14 5RJ",395109,424534,53.717195,-2.07559,NULL,https://calderdale.gov.uk/v2/residents/environment-planning-and-building/waste-and-recycling/household-waste-recycling-centres/todmorden
Emerald Street Recycling Centre,1,Yorkshire and The Humber,"Emerald Street, Huddersfield, West Yorkshire, HD1 6BY",414879,417911,53.657498,-1.776339,NULL,https://www.kirklees.gov.uk/beta/your-property-bins-recycling/household-waste-recycling-centres.aspx
Bent Ley Road Recycling Centre,1,Yorkshire and The Humber,"Bent Ley Road, Meltham, Huddersfield, HD9 4AP",411119,411222,53.597453,-1.833467,NULL,https://www.kirklees.gov.uk/beta/your-property-bins-recycling/household-waste-recycling-centres.aspx
Bromley Farm Recycling Centre,1,Yorkshire and The Humber,"Barnsley Road, Upper Cumberworth, Huddersfield, HD8 8PD",421276,408886,53.576145,-1.680157,NULL,https://www.kirklees.gov.uk/beta/your-property-bins-recycling/household-waste-recycling-centres.aspx
Weaving Lane Recycling Centre,1,Yorkshire and The Humber,"Weaving Lane, Dewsbury, West Yorkshire, WF13 3RU",423409,420684,53.682096,-1.647062,NULL,https://www.kirklees.gov.uk/beta/your-property-bins-recycling/household-waste-recycling-centres.aspx
Nab Lane Recycling Centre,1,Yorkshire and The Humber,"Nab Lane, Birstall, Batley, WF17 0HU",423716,426854,53.737538,-1.641944,NULL,https://www.kirklees.gov.uk/beta/your-property-bins-recycling/household-waste-recycling-centres.aspx
Chester Recycling Centre,1,North West,"Bumpers Lane, Sealand Road, Chester, CH1 4LT",338875,366556,53.192576,-2.91633,NULL,https://www.cheshirewestandchester.gov.uk/residents/waste-and-recycling/find-a-recycling-centre/Chester%20Recycling%20Centre.aspx
Ellesmere Port Recycling Centre,1,North West,"Bridges Road, Ellesmere Port, Cheshire, CH65 4LB",341805,376148,53.2791,-2.874236,NULL,https://www.cheshirewestandchester.gov.uk/residents/waste-and-recycling/find-a-recycling-centre/Ellesmere%20Port%20Recycling%20Centre.aspx
Frodsham Recycling Centre,1,North West,"Old Station Yard, Church Street, Frodsham, WA6 6PN",351834,377781,53.294801,-2.724089,NULL,https://www.cheshirewestandchester.gov.uk/residents/waste-and-recycling/find-a-recycling-centre/Frodsham%20Recycling%20Centre.aspx
Neston Recycling Centre,1,North West,"Land Off Leighton Road, Neston, Chester, CH1 6PA",338676,373410,53.254139,-2.920628,NULL,https://www.cheshirewestandchester.gov.uk/residents/waste-and-recycling/find-a-recycling-centre/Neston%20Recycling%20Centre.aspx
Tattenhall Recycling Centre,1,North West,"Red Lane, Tattenhall, Huxley, CH3 9BD",349573,360518,53.139414,-2.755273,NULL,https://www.cheshirewestandchester.gov.uk/residents/waste-and-recycling/find-a-recycling-centre/Tattenhall%20Recycling%20Centre.aspx
Northwich Recycling Centre,1,North West,"Old Warrington Road, Northwich, Cheshire, CW9 5LN",366203,374494,53.266355,-2.508174,NULL,https://www.cheshirewestandchester.gov.uk/residents/waste-and-recycling/find-a-recycling-centre/Northwich%20Recycling%20Centre.aspx
Winsford Recycling Centre,1,North West,"Leslie Roa, Woodford Park Ind Est, Winsford, CW7 2RB",363102,365373,53.184164,-2.553605,NULL,https://www.cheshirewestandchester.gov.uk/residents/waste-and-recycling/find-a-recycling-centre/Winsford%20Recycling%20Centre.aspx
Shrewsbury Recycling Centre,1,West Midlands,"Vanguard Way, Battlefield, Shrewsbury, SY1 3TG",350903,316235,52.741515,-2.72867,NULL,https://shropshire.gov.uk/recycling-and-rubbish/household-recycling-centres/your-nearest-hrc/shrewsbury-household-recycling-centre/
Oswestry Recycling Centre,1,West Midlands,"South Of Mile Oak Ind Est, Oswestry, Shropshire, SY10 8GA",329924,328021,52.84513,-3.041897,NULL,https://shropshire.gov.uk/recycling-and-rubbish/household-recycling-centres/your-nearest-hrc/oswestry-household-recycling-centre/
Whitchurch Recycling Centre,1,West Midlands,"Waymills Industrial Estate, Whitchurch, Shropshire, SY13 1RS",352899,341488,52.968684,-2.702767,NULL,https://shropshire.gov.uk/recycling-and-rubbish/household-recycling-centres/your-nearest-hrc/whitchurch-household-recycling-centre/
Craven Arms Recycling Centre,1,West Midlands,"Long Lane Ind Est, Craven Arms, Shropshire, SY7 8DU",342821,283669,52.447989,-2.842733,NULL,https://shropshire.gov.uk/recycling-and-rubbish/household-recycling-centres/your-nearest-hrc/craven-arms-household-recycling-centre/
Bridgnorth Recycling Centre,1,West Midlands,"Faraday Drive, Bridgnorth, Shropshire, WV15 5BA",372819,292512,52.529807,-2.402097,NULL,https://shropshire.gov.uk/recycling-and-rubbish/household-recycling-centres/your-nearest-hrc/bridgnorth-household-recycling-centre/
Baddesley Ensor Recycling Centre,1,West Midlands,"Lower House Lane, Dordon, Warwickshire, CV9 2QA",426396,299499,52.592671,-1.61177,01926 412593,https://www.staffordshire.gov.uk/Waste-and-recycling/recyclingcentres/Baddesley-Ensor.aspx
Hereford Recycling Centre,1,West Midlands,"Chapel Road, Rotherwas Ind Est, Hereford, HR2 6LD",353683,238229,52.040523,-2.676685,01432 343420,https://www.herefordshire.gov.uk/directory_record/33/hereford_household_recycling_centre
Kington Recycling Centre,1,West Midlands,"Eardisley Road, Kington, Herefordshire, HR5 3HB",330361,255110,52.189816,-3.020114,01544 231184,https://www.herefordshire.gov.uk/directory_record/35/kington_household_recycling_centre
Ledbury Recycling Centre,1,West Midlands,"Little Marcle Lane, Ledbury, Herefordshire, HR8 2DP",370174,237246,52.032813,-2.436179,01531 635615,https://www.herefordshire.gov.uk/directory_record/36/ledbury_household_recycling_centre
Leominster Recycling Centre,1,West Midlands,"Bridge Street, Leominster, Herefordshire, HR6 8EA",349284,259814,52.234183,-2.74404,01568 614271,https://www.herefordshire.gov.uk/directory_record/37/leominster_household_recycling_centre
Ross-on-Wye Recycling Centre,1,West Midlands,"Station Approach, Ross On Wye, Herefordshire, HR9 7AQ",360369,224358,51.91633,-2.577605,01989 762460,https://www.herefordshire.gov.uk/directory_record/38/ross-on-wye_household_recycling_centre
Fosse Cross Recycling Centre,1,South West,"Fosse Cross, Calmsden, Gloucestershire, GL54 4NW",405654,209082,51.780381,-1.919437,NULL,https://www.gloucestershirerecycles.com/household-recycling-centres-hrcs/your-nearest-recycling-centre/fosse-cross-hrc-cirencester/
Pyke Quarry Recycling Centre,1,South West,"The Street, Horsley, Nailsworth, GL8 8YE",381701,197214,51.673395,-2.266022,NULL,https://www.gloucestershirerecycles.com/household-recycling-centres-hrcs/your-nearest-recycling-centre/pyke-quarry-hrc-horsley/
Oak Quarry Recycling Centre,1,South West,"Broadwell, Coleford, Gloucestershire, GL16 7EQ",360856,211723,51.80277,-2.569089,NULL,https://www.gloucestershirerecycles.com/household-recycling-centres-hrcs/your-nearest-recycling-centre/oak-quarry-hrc-coleford/
Hempsted Recycling Centre,1,South West,"Hempsted Lane, Hempsted, Gloucester, GL2 5JR",381675,217437,51.855218,-2.267472,NULL,https://www.gloucestershirerecycles.com/household-recycling-centres-hrcs/your-nearest-recycling-centre/hempsted-hrc-gloucester/
Wingmoor Farm Recycling Centre,1,South West,"Stoke Orchard Road, Bishops Cleeve, Cheltenham, GL52 7DG",394490,227610,51.946967,-2.081566,NULL,https://www.gloucestershirerecycles.com/household-recycling-centres-hrcs/your-nearest-recycling-centre/wingmoor-farm-hrc-bishops-cleeve/
Crowborough Recycling Centre,1,South East,"Farningham Road, Crowborough, East Sussex, TN6 2JP",553466,129778,51.046855,0.187978,NULL,https://www.eastsussex.gov.uk/environment/rubbishandrecycling/recyclingsites/escc-crowboroughhwrs/
Eastbourne Recycling Centre,1,South East,"St Phillips Avenue, Eastbourne, East Sussex, BN22 8NB",562008,100620,50.782522,0.296798,NULL,https://www.eastsussex.gov.uk/environment/rubbishandrecycling/recyclingsites/escc-eastbournehwrs/
Hailsham Recycling Centre,1,South East,"Station Road, Hailsham, East Sussex, BN27 2BY",559710,108532,50.854257,0.26764,NULL,https://www.eastsussex.gov.uk/environment/rubbishandrecycling/recyclingsites/escc-hailshamhwrs/
Hastings Recycling Centre,1,South East,"Freshfields, Bexhill Road, St Leonards On Sea, TN38 8AY",576865,108209,50.846364,0.510998,NULL,https://www.eastsussex.gov.uk/environment/rubbishandrecycling/recyclingsites/escc-hastingshwrs/
Heathfield Recycling Centre,1,South East,"Burwash Road, Heathfield, East Sussex, TN21 8RA",559445,121888,50.974338,0.26971,NULL,https://www.eastsussex.gov.uk/environment/rubbishandrecycling/recyclingsites/escc-heathfieldhwrs/
Lewes Recycling Centre,1,South East,"Ham Lane, Lewes, East Sussex, BN7 3PS",542083,109409,50.866728,0.017757,NULL,https://www.eastsussex.gov.uk/environment/rubbishandrecycling/recyclingsites/escc-leweshwrs/
Maresfield Recycling Centre,1,South East,"Batts Bridge Road, Maresfield, Uckfield, TN22 2HN",546055,123752,50.994633,0.079903,NULL,https://www.eastsussex.gov.uk/environment/rubbishandrecycling/recyclingsites/escc-maresfieldhwrs/
Mountfield Recycling Centre,1,South East,"Mountfield, London Road, Battle, TN32 5LX",574566,120095,50.953849,0.484022,NULL,https://www.eastsussex.gov.uk/environment/rubbishandrecycling/recyclingsites/escc-mountfieldhwrs/
Newhaven Recycling Centre,1,South East,"New Road, Newhaven, East Sussex, BN9 0EH",544974,101889,50.798431,0.05584,NULL,https://www.eastsussex.gov.uk/environment/rubbishandrecycling/recyclingsites/escc-newhavenhwrs/
Seaford Recycling Centre,1,South East,"Cradle Hill Industrial Estate, Seaford, East Sussex, BN25 3JE",549677,100389,50.783757,0.121917,NULL,https://www.eastsussex.gov.uk/environment/rubbishandrecycling/recyclingsites/escc-seafordhwrs/
Ashford Recycling Centre,1,South East,"Brunswick Rd, Ashford, Kent, TN23 1EN",599656,142878,51.150326,0.853356,03000 41 73 73,https://www.kent.gov.uk/waste-planning-and-land/rubbish-and-recycling/find-your-nearest-tip/ashford
Capstone Recycling Centre,1,South East,"Shawstead Road, Chatham, Kent, ME7 3JL",577593,164028,51.347583,0.548733,NULL,https://www.medway.gov.uk/directory_record/152/capstone_waste_and_recycling_centre/category/33/recycling_centres
Dartford Recycling Centre,1,London,"Rochester Way, Dartford, Kent, DA1 3QU",551014,173774,51.442831,0.171539,03000 41 73 73,https://www.kent.gov.uk/waste-planning-and-land/rubbish-and-recycling/find-your-nearest-tip/dartford
Dover Recycling Centre,1,South East,"Honeywood Road, Whitfield, Dover, CT16 3EH",630280,144564,51.153971,1.291582,03000 41 73 73,https://www.kent.gov.uk/waste-planning-and-land/rubbish-and-recycling/find-your-nearest-tip/dover
Folkestone Recycling Centre,1,South East,"Ross Way, Folkestone, Kent, CT20 3UJ",620132,135997,51.081046,1.141514,03000 41 73 73,https://www.kent.gov.uk/waste-planning-and-land/rubbish-and-recycling/find-your-nearest-tip/folkestone
Herne Bay Recycling Centre,1,South East,"Westbrook Lane, Studd Hill, Herne Bay, CT6 8DD",615536,167133,51.362356,1.094702,03000 41 73 73,https://www.kent.gov.uk/waste-planning-and-land/rubbish-and-recycling/find-your-nearest-tip/herne-bay
Margate Recycling Centre,1,South East,"Manston Rd, Margate, Kent, CT9 4LX",635129,168925,51.370679,1.376823,03000 41 73 73,https://www.kent.gov.uk/waste-planning-and-land/rubbish-and-recycling/find-your-nearest-tip/margate
Pepperhill Recycling Centre,1,South East,"Station Road, Southfleet, Kent, DA13 9PA",560818,171620,51.420782,0.311511,03000 41 73 73,https://www.kent.gov.uk/waste-planning-and-land/rubbish-and-recycling/find-your-nearest-tip/pepperhill
Sevenoaks Recycling Centre,1,South East,"Main Road, Sundridge, Sevenoaks, TN14 6EP",549336,155678,51.280676,0.13982,03000 41 73 73,https://www.kent.gov.uk/waste-planning-and-land/rubbish-and-recycling/find-your-nearest-tip/sevenoaks
Sittingbourne Recycling Centre,1,South East,"Gas Road, Sittingbourne, Kent, ME10 2QD",590552,164362,51.346389,0.734775,03000 41 73 73,https://www.kent.gov.uk/waste-planning-and-land/rubbish-and-recycling/find-your-nearest-tip/sittingbourne
Tunbridge Wells Recycling Centre,1,South East,"Dowding Way, Tunbridge Wells, Kent, TN2 3UY",559797,141964,51.154624,0.283581,03000 41 73 73,https://www.kent.gov.uk/waste-planning-and-land/rubbish-and-recycling/find-your-nearest-tip/tunbridge-wells
Canterbury Recycling Centre,1,South East,"Vauxhall Road, Canterbury, Kent, CT1 1QZ",616349,159566,51.294102,1.101741,03000 41 73 73,https://www.kent.gov.uk/waste-planning-and-land/rubbish-and-recycling/find-your-nearest-tip/canterbury
Cuxton Recycling Centre,1,South East,"Sundridge Hill, Cuxton, Strood, ME2 1LF",571547,167164,51.37761,0.463545,NULL,https://www.medway.gov.uk/directory_record/153/cuxton_waste_and_recycling_centre
Deal Recycling Centre,1,South East,"Southwall Road, Deal, Kent, CT14 9XH",636742,152819,51.225435,1.389253,03000 41 73 73,https://www.kent.gov.uk/waste-planning-and-land/rubbish-and-recycling/find-your-nearest-tip/deal
Faversham Recycling Centre,1,South East,"Preston Forge, Salters Lane, Faversham, ME13 8ND",601787,160423,51.307144,0.893687,03000 41 73 73,https://www.kent.gov.uk/waste-planning-and-land/rubbish-and-recycling/find-your-nearest-tip/faversham
Hoath Way Recycling Centre,1,South East,"Amberly Road, Gillingham, Kent, ME8 0PU",579438,166299,51.367403,0.576371,NULL,https://www.medway.gov.uk/directory_record/151/hoath_way_waste_and_recycling_centre/category/33/recycling_centres
Maidstone Recycling Centre,1,South East,"Burial Ground Lane, Tovil, Maidstone, ME15 6RJ",575108,154505,51.262806,0.508447,03000 41 73 73,https://www.kent.gov.uk/waste-planning-and-land/rubbish-and-recycling/find-your-nearest-tip/maidstone
New Romney Recycling Centre,1,South East,"Mountfield Road, New Romney, Kent, TN28 8JH",606821,125674,50.993289,0.945864,03000 41 73 73,https://www.kent.gov.uk/waste-planning-and-land/rubbish-and-recycling/find-your-nearest-tip/new-romney
Richborough Recycling Centre,1,South East,"Ramsgate Road, Sandwich, Kent, CT13 9NW",633294,160820,51.298675,1.345176,03000 41 73 73,https://www.kent.gov.uk/waste-planning-and-land/rubbish-and-recycling/find-your-nearest-tip/richborough
Sheerness Recycling Centre,1,South East,"Bridge Road, Sheerness, Kent, ME12 1PG",591767,174836,51.44005,0.757853,03000 41 73 73,https://www.kent.gov.uk/waste-planning-and-land/rubbish-and-recycling/find-your-nearest-tip/sheerness
Swanley Recycling Centre,1,South East,"Wested Lane, Swanley, Kent, BR8 8TE",552423,167513,51.386199,0.189108,03000 41 73 73,https://www.kent.gov.uk/waste-planning-and-land/rubbish-and-recycling/find-your-nearest-tip/swanley
Braintree Recycling Centre,1,East of England,"Springwood Drive, Braintree, Essex, CM7 2YN",574635,223964,51.886887,0.536178,NULL,https://www.loveessex.org/find-your-nearest-recycling-centre/braintree-recycling-centre/
Brentwood Recycling Centre,1,East of England,"Coxtie Green Road, Brentwood, Essex, CM14 5PN",557407,195822,51.639182,0.273331,NULL,https://www.loveessex.org/find-your-nearest-recycling-centre/brentwood-recycling-centre/
Burnham-on-Crouch Recycling Centre,1,East of England,"Springfield Road, Burnham On Crouch, Essex, CM0 8AU",595313,195522,51.624611,0.820274,NULL,https://www.loveessex.org/find-your-nearest-recycling-centre/burnham-on-crouch-recycling-centre/
Canvey Recycling Centre,1,East of England,"Canvey Road, Canvey Island, Essex, SS8 0QX",578016,185165,51.537318,0.56545,NULL,https://www.loveessex.org/find-your-nearest-recycling-centre/canvey-recycling-centre/
Chelmsford Recycling Centre,1,East of England,"Drovers Way, Springfield, Chelmsford, CM2 5PP",573831,209117,51.753769,0.517034,NULL,https://www.loveessex.org/find-your-nearest-recycling-centre/chelmsford-recycling-centre/
Chigwell Recycling Centre,1,East of England,"Luxborough Lane, Chigwell, Essex, IG7 5AA",542461,192797,51.615979,0.056246,NULL,https://www.loveessex.org/find-your-nearest-recycling-centre/chigwell-recycling-centre/
Clacton Recycling Centre,1,East of England,"Rush Green Road, Clacton On Sea, Essex, CO16 7AD",616003,215463,51.796083,1.131072,NULL,https://www.loveessex.org/find-your-nearest-recycling-centre/clacton-recycling-centre/
Colchester Recycling Centre,1,East of England,"Maldon Road, Shrub End, Colchester, CO3 4RN",596848,223053,51.871304,0.857991,NULL,https://www.loveessex.org/find-your-nearest-recycling-centre/colchester-recycling-centre/
Dovercourt Recycling Centre,1,East of England,"West End, Hall Lane, Dovercourt, CO12 3TA",624691,230509,51.927721,1.266626,NULL,https://www.loveessex.org/find-your-nearest-recycling-centre/dovercourt-recycling-centre/
Harlow Recycling Centre,1,East of England,"Temple Bank, Harlow, Essex, CM20 2DY",546948,212467,51.791567,0.129317,NULL,https://www.loveessex.org/find-your-nearest-recycling-centre/harlow-recycling-centre/
Kirby le Soken Recycling Centre,1,East of England,"Maltings Lane, Kirby Le Soken, Essex, CO13 0EH",622124,222229,51.854424,1.224026,NULL,https://www.loveessex.org/find-your-nearest-recycling-centre/kirby-le-soken-recycling-centre/
Lawford Recycling Centre,1,East of England,"Greensmill, Lawford, Essex, CO11 1UP",610031,232297,51.949506,1.054863,NULL,https://www.loveessex.org/find-your-nearest-recycling-centre/lawford-recycling-centre/
Maldon Recycling Centre,1,East of England,"Park Drive, Maldon, Essex, CM9 5UR",586019,206199,51.723651,0.691849,NULL,https://www.loveessex.org/find-your-nearest-recycling-centre/maldon-recycling-centre/
Mountnessing Recycling Centre,1,East of England,"Roman Road, Mountnessing, Essex, CM4 9AU",563732,198210,51.658831,0.365768,NULL,https://www.loveessex.org/find-your-nearest-recycling-centre/mountnessing-recycling-centre/
Pitsea Recycling Centre,1,East of England,"Pitsea Hall Road, Pitsea, Essex, SS16 4UH",573729,187222,51.55713,0.504715,NULL,https://www.loveessex.org/find-your-nearest-recycling-centre/pitsea-recycling-centre/
Rayleigh Recycling Centre,1,East of England,"Castle Road, Rayleigh, Essex, SS6 7QF",580555,190329,51.582893,0.604642,NULL,https://www.loveessex.org/find-your-nearest-recycling-centre/rayleigh-recycling-centre/
Saffron Recycling Centre,1,East of England,"Thaxted Road, Saffron Walden, Essex, CB10 2UR",555137,237008,52.009825,0.258966,NULL,https://www.loveessex.org/find-your-nearest-recycling-centre/saffron-walden-recycling-centre/
South Woodham Ferrers Recycling Centre,1,East of England,"Ferrers Road, South Woodham Ferrers, Essex, CM3 5XH",581370,197101,51.643457,0.619893,NULL,https://www.loveessex.org/find-your-nearest-recycling-centre/south-woodham-ferrers-recycling-centre/
Waltham Abbey Recycling Centre,1,East of England,"Brooker Road, Waltham Abbey, Essex, EN9 1JH",538133,199999,51.681775,-0.003356,NULL,https://www.loveessex.org/find-your-nearest-recycling-centre/waltham-abbey-recycling-centre/
West Mersea Recycling Centre,1,East of England,"Uplands Road, West Mersea, Essex, CO5 8DR",601205,213115,51.780514,0.915422,NULL,https://www.loveessex.org/find-your-nearest-recycling-centre/west-mersea-recycling-centre/
Witham Recycling Centre,1,East of England,"Perry Road, Witham, Essex, CM8 3UD",582795,214134,51.795978,0.649396,NULL,https://www.loveessex.org/find-your-nearest-recycling-centre/witham-recycling-centre/
Felixstowe Recycling Centre,1,East of England,"Carr Road, Felixstowe, Suffolk, IP11 3RX",628898,233014,51.948507,1.3294,03456 066 067,https://www.suffolkrecycling.org.uk/where-to-recycle/recycling-centres
Bury St Edmunds Recycling Centre,1,East of England,"Fornham St Martin, Bury St Edmunds, Suffolk, IP31 1FE",597143,276932,52.355007,0.893473,03456 066 067,https://www.suffolkrecycling.org.uk/where-to-recycle/recycling-centres
Foxhall Recycling Centre,1,East of England,"Foxhall Road, Brightwell, Ipswich, IP10 0HT",623929,243987,52.049008,1.264356,03456 066 067,https://www.suffolkrecycling.org.uk/where-to-recycle/recycling-centres
Hadleigh Recycling Centre,1,East of England,"Croakett Way, Hadleigh, Suffolk, IP7 6AH",603491,243141,52.049287,0.966239,03456 066 067,https://www.suffolkrecycling.org.uk/where-to-recycle/recycling-centres
Haverhill Recycling Centre,1,East of England,"Coupals Road, Haverhill, Suffolk, CB9 7UR",568218,244849,52.076461,0.453263,03456 066 067,https://www.suffolkrecycling.org.uk/where-to-recycle/recycling-centres
Ipswich Recycling Centre,1,East of England,"Portmans Walk, Ipswich, Suffolk, IP1 2DW",615321,244357,52.055738,1.139258,03456 066 067,https://www.suffolkrecycling.org.uk/where-to-recycle/recycling-centres
Leiston Recycling Centre,1,East of England,"Lovers Lane, Leiston, Suffolk, IP16 4UJ",647022,262961,52.209477,1.614252,03456 066 067,https://www.suffolkrecycling.org.uk/where-to-recycle/recycling-centres
Lowestoft Recycling Centre,1,Yorkshire and The Humber,"Towthorpe Lane, Towthorpe, Strensall, YO32 9ST",464854,458488,54.018333,-1.011681,03456 066 067,https://www.suffolkrecycling.org.uk/where-to-recycle/recycling-centres
Mildenhall Recycling Centre,1,East of England,"Off A1065, Mildenhall, Suffolk, IP28 7JQ",572817,275290,52.348444,0.5358,03456 066 067,https://www.suffolkrecycling.org.uk/where-to-recycle/recycling-centres
Stowmarket Recycling Centre,1,East of England,"Old Bury Road, Stowmarket, Suffolk, IP14 1JQ",604552,259615,52.196805,0.991585,03456 066 067,https://www.suffolkrecycling.org.uk/where-to-recycle/recycling-centres
Sudbury Recycling Centre,1,East of England,"Sandy Lane, Bulmer, Sudbury, CO10 7HG",586210,240744,52.033832,0.713234,03456 066 067,https://www.suffolkrecycling.org.uk/where-to-recycle/recycling-centres
Ashill Recycling Centre,1,East of England,"Swaffham Road, Ashill, Norfolk, IP25 7BT",588001,304180,52.60287,0.774735,NULL,https://www.norfolk.gov.uk/rubbish-recycling-and-planning/rubbish-and-recycling/find-your-local-recycling-centre/ashill-main-recycling-centre
Bergh Apton Recycling Centre,1,East of England,"Wellbeck Road, Bergh Apton, Norwich, NR15 1AU",630452,299944,52.548529,1.397567,NULL,https://www.norfolk.gov.uk/rubbish-recycling-and-planning/rubbish-and-recycling/find-your-local-recycling-centre/bergh-apton-part-time-recycling-centre
Caister Main Recycling Centre,1,East of England,"Pump Lane, Caister, Great Yarmouth, NR30 5TE",652327,310907,52.637214,1.72787,NULL,https://www.norfolk.gov.uk/rubbish-recycling-and-planning/rubbish-and-recycling/find-your-local-recycling-centre/caister-main-recycling-centre-plus
Dereham Recycling Centre,1,East of England,"Trafalgar Business Park, Rash's Green, Dereham, NR19 1JG",599462,311867,52.6678,0.94838,NULL,https://www.norfolk.gov.uk/rubbish-recycling-and-planning/rubbish-and-recycling/find-your-local-recycling-centre/dereham-main-recycling-centre-plus
Docking Recycling Centre,1,East of England,"Fakenham Road, Docking, Norfolk, PE31 8PX",579131,335460,52.886756,0.660976,NULL,https://www.norfolk.gov.uk/rubbish-recycling-and-planning/rubbish-and-recycling/find-your-local-recycling-centre/docking-part-time-recycling-centre
Heacham Recycling Centre,1,East of England,"Chalk Road, Heacham, Kings Lynn, PE31 7JE",568516,337453,52.908082,0.504407,NULL,https://www.norfolk.gov.uk/rubbish-recycling-and-planning/rubbish-and-recycling/find-your-local-recycling-centre/heacham-main-recycling-centre
Hempton Recycling Centre,1,East of England,"Helhaughton Road, Hempton, Fakenham, NR21 7DY",590566,328511,52.820463,0.826673,NULL,https://www.norfolk.gov.uk/rubbish-recycling-and-planning/rubbish-and-recycling/find-your-local-recycling-centre/hempton-main-recycling-centre-plus
Ketteringham Recycling Centre,1,East of England,"Station Road, Ketteringham, Norfolk, NR9 3AZ",617147,303925,52.58975,1.204299,NULL,https://www.norfolk.gov.uk/rubbish-recycling-and-planning/rubbish-and-recycling/find-your-local-recycling-centre/ketteringham-main-recycling-centre-plus
King’s Lynn Recycling Centre,1,East of England,"Willows Business Park, Saddlebow, Kings Lynn, PE34 3RD",561169,317119,52.727702,0.385238,NULL,https://www.norfolk.gov.uk/rubbish-recycling-and-planning/rubbish-and-recycling/find-your-local-recycling-centre/kings-lynn-main-recycling-centre-plus
Mayton Wood Recycling Centre,1,East of England,"Aylsham Road, Little Hautbois, Coltishall, NR12 7JX",624839,321628,52.745505,1.329717,NULL,https://www.norfolk.gov.uk/rubbish-recycling-and-planning/rubbish-and-recycling/find-your-local-recycling-centre/mayton-wood-main-recycling-centre-plus
Mile Cross Recycling Centre,1,East of England,"Swanton Road, Norwich, Norfolk, NR2 4LH",621508,309980,52.642338,1.272621,NULL,https://www.norfolk.gov.uk/rubbish-recycling-and-planning/rubbish-and-recycling/find-your-local-recycling-centre/mile-cross-main-recycling-centre-plus
Morningthorpe Recycling Centre,1,East of England,"Mill Lane, Morningthorpe, Norfolk, NR15 2ST",622088,289511,52.458363,1.26747,NULL,https://www.norfolk.gov.uk/rubbish-recycling-and-planning/rubbish-and-recycling/find-your-local-recycling-centre/morningthorpe-main-recycling-centre
Sheringham Recycling Centre,1,East of England,"A148 Nr Pretty Corner, Beeston Regis, Sheringham, NR26 8TW",615646,341072,52.923738,1.20657,NULL,https://www.norfolk.gov.uk/rubbish-recycling-and-planning/rubbish-and-recycling/find-your-local-recycling-centre/sheringham-main-recycling-centre
Snetterton Recycling Centre,1,East of England,"Harling Road, Snetterton, Norfolk, NR16 2JU",601052,290012,52.471004,0.958616,NULL,https://www.norfolk.gov.uk/rubbish-recycling-and-planning/rubbish-and-recycling/find-your-local-recycling-centre/snetterton-part-time-recycling-centre
Strumpshaw Recycling Centre,1,East of England,"Stone Road, Strumpshaw, Norwich, NR13 4HR",634545,306519,52.605808,1.462491,NULL,https://www.norfolk.gov.uk/rubbish-recycling-and-planning/rubbish-and-recycling/find-your-local-recycling-centre/strumpshaw-main-recycling-centre
Thetford Recycling Centre,1,East of England,"Telford Way, Thetford, Norfolk, IP24 1HU",586416,284154,52.423591,0.740143,NULL,https://www.norfolk.gov.uk/rubbish-recycling-and-planning/rubbish-and-recycling/find-your-local-recycling-centre/thetford-main-recycling-centre-plus
Wells-next-the-Sea Recycling Centre,1,East of England,"Warham Road, Wells Next The Sea, Norfolk, NR23 1NE",592343,342972,52.949667,0.861548,NULL,https://www.norfolk.gov.uk/rubbish-recycling-and-planning/rubbish-and-recycling/find-your-local-recycling-centre/wells-next-the-sea-part-time-recycling-centre
Wereham Recycling Centre,1,East of England,"Crimplesham Road, Off A134, Crimplesham, Norfolk, PE33 9EB",566179,303615,52.604922,0.452573,NULL,https://www.norfolk.gov.uk/rubbish-recycling-and-planning/rubbish-and-recycling/find-your-local-recycling-centre/wereham-part-time-recycling-centre
Worstead Recycling Centre,1,East of England,"Old Yarmouth Road, Worstead, North Walsham, NR28 9LX",630069,328138,52.801698,1.411603,NULL,https://www.norfolk.gov.uk/rubbish-recycling-and-planning/rubbish-and-recycling/find-your-local-recycling-centre/worstead-main-recycling-centre
Wymondham Recycling Centre,1,East of England,"Strayground Lane, Wymondham, Norfolk, NR18 9NA",610775,300648,52.562816,1.108278,NULL,https://www.norfolk.gov.uk/rubbish-recycling-and-planning/rubbish-and-recycling/find-your-local-recycling-centre/wymondham-part-time-recycling-centre
Boston Recycling Centre,1,East Midlands,"Nursery Road, Boston, Lincolnshire, PE21 7RQ",533753,341951,52.95826,-0.010286,NULL,https://www.lincolnshire.gov.uk/boston-recycling-centre
Bourne Recycling Centre,1,East Midlands,"South Fen Road, Bourne, Lincolnshire, PE10 0DN",513535,318943,52.756198,-0.31911,NULL,https://www.lincolnshire.gov.uk/bourne-recycling-centre
Gainsborough Recycling Centre,1,East Midlands,"Longwood Road, Corringham Road Ind Est, Gainsborough, DN21 1QB",483655,390400,53.403822,-0.743176,NULL,https://www.lincolnshire.gov.uk/gainsborough-recycling-centre
Grantham Recycling Centre,1,East Midlands,"Alexandra Road, Grantham, Lincolnshire, NG31 7AS",490943,335409,52.908426,-0.649185,NULL,https://www.lincolnshire.gov.uk/grantham-recycling-centre
